{
"type": "FeatureCollection",
"name": "escolas_risco",
"crs": { "type": "name", "properties": { "name": "urn:ogc:def:crs:OGC:1.3:CRS84" } },
"features": [
{ "type": "Feature", "properties": { "denominaca": "Biblioteca Escolar Municipal de Paquetá - Joaquim Manoel de Macedo", "tipo": "Biblioteca Escolar Municipal", "cre": 1, "bairro": "Paquetá", "codra": 21.0, "codra_nome": "PAQUETA", "valor_ismif": 0.26750977094783301, "risco": "Baixo" }, "geometry": { "type": "Point", "coordinates": [ -43.109769876240982, -22.753344095282252 ] } },
{ "type": "Feature", "properties": { "denominaca": "Biblioteca Escolar Municipal de Copacabana - Carlos Drummond de Andrade", "tipo": "Biblioteca Escolar Municipal", "cre": 2, "bairro": "Copacabana", "codra": 5.0, "codra_nome": "COPACABANA", "valor_ismif": 0.0069904363885220002, "risco": "Muito Baixo" }, "geometry": { "type": "Point", "coordinates": [ -43.192079374027152, -22.980752847097357 ] } },
{ "type": "Feature", "properties": { "denominaca": "Biblioteca Escolar Municipal da Glória -  Pedro Nava", "tipo": "Biblioteca Escolar Municipal", "cre": 2, "bairro": "Santa Teresa", "codra": 23.0, "codra_nome": "SANTA TEREZA", "valor_ismif": 0.112380949656169, "risco": "Muito Baixo" }, "geometry": { "type": "Point", "coordinates": [ -43.17721030142625, -22.91890136003461 ] } },
{ "type": "Feature", "properties": { "denominaca": "Biblioteca Escolar Municipal do Leblon - Vinícius de Moraes", "tipo": "Biblioteca Escolar Municipal", "cre": 2, "bairro": "Lagoa", "codra": 6.0, "codra_nome": "LAGOA", "valor_ismif": 0.43928617112180002, "risco": "Médio" }, "geometry": { "type": "Point", "coordinates": [ -43.225074387940303, -22.975639024658484 ] } },
{ "type": "Feature", "properties": { "denominaca": "Biblioteca Escolar Municipal do Grajaú - Clarice Lispector", "tipo": "Biblioteca Escolar Municipal", "cre": 2, "bairro": "Grajaú", "codra": 9.0, "codra_nome": "VILA ISABEL", "valor_ismif": 0.44872245010064599, "risco": "Médio" }, "geometry": { "type": "Point", "coordinates": [ -43.257135266032989, -22.92183099307956 ] } },
{ "type": "Feature", "properties": { "denominaca": "Biblioteca Escolar Municipal do Méier - Infante Carlos Alberto", "tipo": "Biblioteca Escolar Municipal", "cre": 3, "bairro": "Méier", "codra": 13.0, "codra_nome": "MEIER", "valor_ismif": 0.60094663831922701, "risco": "Alto" }, "geometry": { "type": "Point", "coordinates": [ -43.274190991443952, -22.898403878591758 ] } },
{ "type": "Feature", "properties": { "denominaca": "Biblioteca Escolar Municipal do Engenho Novo - Agripino Grieco", "tipo": "Biblioteca Escolar Municipal", "cre": 3, "bairro": "Engenho de Dentro", "codra": 13.0, "codra_nome": "MEIER", "valor_ismif": 0.48795948857846499, "risco": "Médio" }, "geometry": { "type": "Point", "coordinates": [ -43.295757776481139, -22.900295780628181 ] } },
{ "type": "Feature", "properties": { "denominaca": "Biblioteca Escolar Municipal da Penha - Álvaro Moreyra", "tipo": "Biblioteca Escolar Municipal", "cre": 4, "bairro": "Penha", "codra": 11.0, "codra_nome": "PENHA", "valor_ismif": 0.206829112509023, "risco": "Baixo" }, "geometry": { "type": "Point", "coordinates": [ -43.270801746831467, -22.842066893420835 ] } },
{ "type": "Feature", "properties": { "denominaca": "Biblioteca Escolar Municipal do Dique - José do Lins do Rego", "tipo": "Biblioteca Escolar Municipal", "cre": 4, "bairro": "Jardim América", "codra": 31.0, "codra_nome": "VIGARIO GERAL", "valor_ismif": 0.57323448181152303, "risco": "Médio" }, "geometry": { "type": "Point", "coordinates": [ -43.324900563010225, -22.802365437420498 ] } },
{ "type": "Feature", "properties": { "denominaca": "Biblioteca Escolar Municipal de Jardim Sulacap - Lúcia Benedetti", "tipo": "Biblioteca Escolar Municipal", "cre": 8, "bairro": "Jardim Sulacap", "codra": 33.0, "codra_nome": "REALENGO", "valor_ismif": 0.39673566818237299, "risco": "Baixo" }, "geometry": { "type": "Point", "coordinates": [ -43.394899000043267, -22.887125999621635 ] } },
{ "type": "Feature", "properties": { "denominaca": "Biblioteca Escolar Municipal de Bangu - Cruz e Souza", "tipo": "Biblioteca Escolar Municipal", "cre": 8, "bairro": "Bangu", "codra": 17.0, "codra_nome": "BANGU", "valor_ismif": 0.32877799987792999, "risco": "Baixo" }, "geometry": { "type": "Point", "coordinates": [ -43.463440000443285, -22.878471000295757 ] } },
{ "type": "Feature", "properties": { "denominaca": "Biblioteca de Santa Cruz - Joaquim Nabuco", "tipo": "Biblioteca Escolar Municipal", "cre": 10, "bairro": "Santa Cruz", "codra": 19.0, "codra_nome": "SANTA CRUZ", "valor_ismif": 0.42453400985054301, "risco": "Médio" }, "geometry": { "type": "Point", "coordinates": [ -43.693202000195413, -22.92300899958256 ] } },
{ "type": "Feature", "properties": { "denominaca": "Biblioteca Escolar Municipal da Cidade das Crianças - Rachel de Queiroz", "tipo": "Biblioteca Escolar Municipal", "cre": 10, "bairro": "Santa Cruz", "codra": 19.0, "codra_nome": "SANTA CRUZ", "valor_ismif": 0.90522291395399301, "risco": "Muito Alto" }, "geometry": { "type": "Point", "coordinates": [ -43.691132000208619, -22.900842999708889 ] } },
{ "type": "Feature", "properties": { "denominaca": "Escola Municipal Vicente Licínio Cardoso", "tipo": "Escola Municipal", "cre": 1, "bairro": "Saúde", "codra": 1.0, "codra_nome": "PORTUARIA", "valor_ismif": 0.090758224328359005, "risco": "Muito Baixo" }, "geometry": { "type": "Point", "coordinates": [ -43.183707000429493, -22.896987999589822 ] } },
{ "type": "Feature", "properties": { "denominaca": "Escola Municipal Darcy Vargas", "tipo": "Escola Municipal", "cre": 1, "bairro": "Gamboa", "codra": 1.0, "codra_nome": "PORTUARIA", "valor_ismif": 0.22465267959906099, "risco": "Baixo" }, "geometry": { "type": "Point", "coordinates": [ -43.189281000167853, -22.895739999834756 ] } },
{ "type": "Feature", "properties": { "denominaca": "Escola Municipal Benjamin Constant", "tipo": "Escola Municipal", "cre": 1, "bairro": "Santo Cristo", "codra": 1.0, "codra_nome": "PORTUARIA", "valor_ismif": 0.33472305795420798, "risco": "Baixo" }, "geometry": { "type": "Point", "coordinates": [ -43.205479000108014, -22.899970000030969 ] } },
{ "type": "Feature", "properties": { "denominaca": "Escola Municipal General Mitre", "tipo": "Escola Municipal", "cre": 1, "bairro": "Santo Cristo", "codra": 1.0, "codra_nome": "PORTUARIA", "valor_ismif": 0.047998269399006997, "risco": "Muito Baixo" }, "geometry": { "type": "Point", "coordinates": [ -43.203153000051621, -22.905088999655948 ] } },
{ "type": "Feature", "properties": { "denominaca": "Escola Municipal Francisco Benjamin Gallotti", "tipo": "Escola Municipal", "cre": 1, "bairro": "Gamboa", "codra": 1.0, "codra_nome": "PORTUARIA", "valor_ismif": 0.032897786891207002, "risco": "Muito Baixo" }, "geometry": { "type": "Point", "coordinates": [ -43.199838000207954, -22.901352999625804 ] } },
{ "type": "Feature", "properties": { "denominaca": "Escola Municipal Marechal Mascarenhas de Moraes", "tipo": "Escola Municipal", "cre": 1, "bairro": "Caju", "codra": 1.0, "codra_nome": "PORTUARIA", "valor_ismif": 0.29000409444173197, "risco": "Baixo" }, "geometry": { "type": "Point", "coordinates": [ -43.216420999534819, -22.877193000120904 ] } },
{ "type": "Feature", "properties": { "denominaca": "Escola Municipal Marechal Esperidião Rosas", "tipo": "Escola Municipal", "cre": 1, "bairro": "Caju", "codra": 1.0, "codra_nome": "PORTUARIA", "valor_ismif": 0.15866521064271299, "risco": "Muito Baixo" }, "geometry": { "type": "Point", "coordinates": [ -43.218230000021869, -22.880014999845152 ] } },
{ "type": "Feature", "properties": { "denominaca": "Escola Municipal Professor Walter Carlos de Magalhães Fraenkel", "tipo": "Escola Municipal", "cre": 1, "bairro": "Caju", "codra": 1.0, "codra_nome": "PORTUARIA", "valor_ismif": 0.35652222925302901, "risco": "Baixo" }, "geometry": { "type": "Point", "coordinates": [ -43.224060000209128, -22.878422000110607 ] } },
{ "type": "Feature", "properties": { "denominaca": "Escola Municipal Felix Mielli Venerando", "tipo": "Escola Municipal", "cre": 1, "bairro": "Caju", "codra": 1.0, "codra_nome": "PORTUARIA", "valor_ismif": 0.72523584171217303, "risco": "Alto" }, "geometry": { "type": "Point", "coordinates": [ -43.22714300004305, -22.88011499996739 ] } },
{ "type": "Feature", "properties": { "denominaca": "Escola Municipal Professora Laura Sylvia Mendes Pereira", "tipo": "Escola Municipal", "cre": 1, "bairro": "Caju", "codra": 1.0, "codra_nome": "PORTUARIA", "valor_ismif": 0.31344938278198198, "risco": "Baixo" }, "geometry": { "type": "Point", "coordinates": [ -43.21625000029875, -22.878299999751931 ] } },
{ "type": "Feature", "properties": { "denominaca": "Ciep Henfil", "tipo": "CIEP", "cre": 1, "bairro": "Caju", "codra": 1.0, "codra_nome": "PORTUARIA", "valor_ismif": 0.51880433824327299, "risco": "Médio" }, "geometry": { "type": "Point", "coordinates": [ -43.225326000334981, -22.880887999853762 ] } },
{ "type": "Feature", "properties": { "denominaca": "Creche Municipal Ladeira dos Funcionários", "tipo": "Creche Municipal", "cre": 1, "bairro": "Caju", "codra": 1.0, "codra_nome": "PORTUARIA", "valor_ismif": 0.347645842510721, "risco": "Baixo" }, "geometry": { "type": "Point", "coordinates": [ -43.224306000391813, -22.879150999768868 ] } },
{ "type": "Feature", "properties": { "denominaca": "Creche Municipal Virgínia Lemos", "tipo": "Creche Municipal", "cre": 1, "bairro": "Caju", "codra": 1.0, "codra_nome": "PORTUARIA", "valor_ismif": 0.71345594654912503, "risco": "Alto" }, "geometry": { "type": "Point", "coordinates": [ -43.233212000473657, -22.886423000047536 ] } },
{ "type": "Feature", "properties": { "denominaca": "Creche Municipal Senninha", "tipo": "Creche Municipal", "cre": 1, "bairro": "Caju", "codra": 1.0, "codra_nome": "PORTUARIA", "valor_ismif": 0.507178679756496, "risco": "Médio" }, "geometry": { "type": "Point", "coordinates": [ -43.228696000170352, -22.882988999633824 ] } },
{ "type": "Feature", "properties": { "denominaca": "Creche Municipal Sempre Vida P. Conquista", "tipo": "Creche Municipal", "cre": 1, "bairro": "Caju", "codra": 1.0, "codra_nome": "PORTUARIA", "valor_ismif": 0.51966938442654098, "risco": "Médio" }, "geometry": { "type": "Point", "coordinates": [ -43.2264180001089, -22.877833999809354 ] } },
{ "type": "Feature", "properties": { "denominaca": "Creche Municipal Clemente Ferreira", "tipo": "Creche Municipal", "cre": 1, "bairro": "Caju", "codra": 1.0, "codra_nome": "PORTUARIA", "valor_ismif": 0.26184244950612401, "risco": "Baixo" }, "geometry": { "type": "Point", "coordinates": [ -43.222735000284032, -22.876014000296337 ] } },
{ "type": "Feature", "properties": { "denominaca": "Creche Municipal Quinta do Caju", "tipo": "Creche Municipal", "cre": 1, "bairro": "Caju", "codra": 1.0, "codra_nome": "PORTUARIA", "valor_ismif": 0.14691554175482899, "risco": "Muito Baixo" }, "geometry": { "type": "Point", "coordinates": [ -43.211623999909008, -22.875318000440867 ] } },
{ "type": "Feature", "properties": { "denominaca": "Creche Municipal Tia Dora", "tipo": "Creche Municipal", "cre": 1, "bairro": "Gamboa", "codra": 1.0, "codra_nome": "PORTUARIA", "valor_ismif": 0.080144246419270995, "risco": "Muito Baixo" }, "geometry": { "type": "Point", "coordinates": [ -43.197523999877433, -22.898108000285262 ] } },
{ "type": "Feature", "properties": { "denominaca": "Espaço de Desenvolvimento Infantil Parque da Alegria", "tipo": "EDI", "cre": 1, "bairro": "Caju", "codra": 1.0, "codra_nome": "PORTUARIA", "valor_ismif": 0.65328357530676795, "risco": "Alto" }, "geometry": { "type": "Point", "coordinates": [ -43.230980000323527, -22.88449400011686 ] } },
{ "type": "Feature", "properties": { "denominaca": "Espaço de Desenvolvimento Infantil Machado de Assis", "tipo": "EDI", "cre": 1, "bairro": "Santo Cristo", "codra": 1.0, "codra_nome": "PORTUARIA", "valor_ismif": 0.037231670773547998, "risco": "Muito Baixo" }, "geometry": { "type": "Point", "coordinates": [ -43.200647999560232, -22.902003000391918 ] } },
{ "type": "Feature", "properties": { "denominaca": "Espaço de Desenvolvimento Infantil Antônio Raposo Tavares", "tipo": "EDI", "cre": 1, "bairro": "Gamboa", "codra": 1.0, "codra_nome": "PORTUARIA", "valor_ismif": 0.15587351169992, "risco": "Muito Baixo" }, "geometry": { "type": "Point", "coordinates": [ -43.194240000048765, -22.89564699982202 ] } },
{ "type": "Feature", "properties": { "denominaca": "Espaço de Desenvolvimento Infantil Professora Laura Sylvia Mendes Pereira", "tipo": "EDI", "cre": 1, "bairro": "Caju", "codra": 1.0, "codra_nome": "PORTUARIA", "valor_ismif": 0.30418568469108398, "risco": "Baixo" }, "geometry": { "type": "Point", "coordinates": [ -43.216269000264994, -22.877767999746364 ] } },
{ "type": "Feature", "properties": { "denominaca": "Escola Municipal Celestino da Silva", "tipo": "Escola Municipal", "cre": 1, "bairro": "Centro", "codra": 2.0, "codra_nome": "CENTRO", "valor_ismif": 0.23539182414179299, "risco": "Baixo" }, "geometry": { "type": "Point", "coordinates": [ -43.183579000268494, -22.90929300032629 ] } },
{ "type": "Feature", "properties": { "denominaca": "Escola Municipal Tiradentes", "tipo": "Escola Municipal", "cre": 1, "bairro": "Centro", "codra": 2.0, "codra_nome": "CENTRO", "valor_ismif": 0.225066039873206, "risco": "Baixo" }, "geometry": { "type": "Point", "coordinates": [ -43.185300000217111, -22.907922000296299 ] } },
{ "type": "Feature", "properties": { "denominaca": "Escola Municipal Rivadavia Corrêa", "tipo": "Escola Municipal", "cre": 1, "bairro": "Centro", "codra": 2.0, "codra_nome": "CENTRO", "valor_ismif": 0.358061648429708, "risco": "Baixo" }, "geometry": { "type": "Point", "coordinates": [ -43.188050999798968, -22.903769999886478 ] } },
{ "type": "Feature", "properties": { "denominaca": "Escola Municipal Calouste Gulbenkian", "tipo": "Escola Municipal", "cre": 1, "bairro": "Centro", "codra": 2.0, "codra_nome": "CENTRO", "valor_ismif": 0.380768983260445, "risco": "Baixo" }, "geometry": { "type": "Point", "coordinates": [ -43.196174000084405, -22.909386999936206 ] } },
{ "type": "Feature", "properties": { "denominaca": "Escola Municipal Guatemala", "tipo": "Escola Municipal", "cre": 1, "bairro": "Centro", "codra": 2.0, "codra_nome": "CENTRO", "valor_ismif": 0.029785337655440999, "risco": "Muito Baixo" }, "geometry": { "type": "Point", "coordinates": [ -43.188367000044622, -22.918177999674107 ] } },
{ "type": "Feature", "properties": { "denominaca": "Escola Municipal Orlando Villas Boas", "tipo": "Escola Municipal", "cre": 1, "bairro": "Santa Teresa", "codra": 23.0, "codra_nome": "SANTA TEREZA", "valor_ismif": 0.0072879017667570002, "risco": "Muito Baixo" }, "geometry": { "type": "Point", "coordinates": [ -43.185991000294834, -22.916709000387513 ] } },
{ "type": "Feature", "properties": { "denominaca": "Escola Municipal Tia Ciata", "tipo": "Escola Municipal", "cre": 1, "bairro": "Centro", "codra": 2.0, "codra_nome": "CENTRO", "valor_ismif": 0.51696241662857401, "risco": "Médio" }, "geometry": { "type": "Point", "coordinates": [ -43.195067999812089, -22.907123000373609 ] } },
{ "type": "Feature", "properties": { "denominaca": "Ciep Avenida dos Desfiles I", "tipo": "CIEP", "cre": 1, "bairro": "Cidade Nova", "codra": 3.0, "codra_nome": "RIO COMPRIDO", "valor_ismif": 0.64213632077586902, "risco": "Alto" }, "geometry": { "type": "Point", "coordinates": [ -43.196507999802591, -22.911213000336971 ] } },
{ "type": "Feature", "properties": { "denominaca": "Ciep Avenida dos Desfiles II", "tipo": "CIEP", "cre": 1, "bairro": "Cidade Nova", "codra": 3.0, "codra_nome": "RIO COMPRIDO", "valor_ismif": 0.63356135753875098, "risco": "Alto" }, "geometry": { "type": "Point", "coordinates": [ -43.196192999669748, -22.912194000115058 ] } },
{ "type": "Feature", "properties": { "denominaca": "Ciep Avenida dos Desfiles", "tipo": "CIEP", "cre": 1, "bairro": "Cidade Nova", "codra": 3.0, "codra_nome": "RIO COMPRIDO", "valor_ismif": 0.59034771389431395, "risco": "Médio" }, "geometry": { "type": "Point", "coordinates": [ -43.196926000480119, -22.909691999886714 ] } },
{ "type": "Feature", "properties": { "denominaca": "Ciep José Pedro Varela", "tipo": "CIEP", "cre": 1, "bairro": "Centro", "codra": 2.0, "codra_nome": "CENTRO", "valor_ismif": 0.315429017898884, "risco": "Baixo" }, "geometry": { "type": "Point", "coordinates": [ -43.182110999692227, -22.911181000213816 ] } },
{ "type": "Feature", "properties": { "denominaca": "Creche Municipal Sempre Vida Santo Antônio de Pádua", "tipo": "Creche Municipal", "cre": 1, "bairro": "Estácio", "codra": 3.0, "codra_nome": "RIO COMPRIDO", "valor_ismif": 0.054452950755755, "risco": "Muito Baixo" }, "geometry": { "type": "Point", "coordinates": [ -43.202959000460858, -22.91897799961135 ] } },
{ "type": "Feature", "properties": { "denominaca": "Creche Municipal Ana Maria da Cruz Silva", "tipo": "Creche Municipal", "cre": 1, "bairro": "Cidade Nova", "codra": 3.0, "codra_nome": "RIO COMPRIDO", "valor_ismif": 0.62743067741393999, "risco": "Alto" }, "geometry": { "type": "Point", "coordinates": [ -43.196778000203693, -22.912295000436785 ] } },
{ "type": "Feature", "properties": { "denominaca": "Creche Municipal Arco-Íris", "tipo": "Creche Municipal", "cre": 1, "bairro": "Centro", "codra": 2.0, "codra_nome": "CENTRO", "valor_ismif": 0.34604157341851099, "risco": "Baixo" }, "geometry": { "type": "Point", "coordinates": [ -43.18170600008326, -22.910793999634613 ] } },
{ "type": "Feature", "properties": { "denominaca": "Creche Municipal Aldeia dos Curumins", "tipo": "Creche Municipal", "cre": 1, "bairro": "Santa Teresa", "codra": 23.0, "codra_nome": "SANTA TEREZA", "valor_ismif": 0.013980872777044, "risco": "Muito Baixo" }, "geometry": { "type": "Point", "coordinates": [ -43.185945999774091, -22.91684399957462 ] } },
{ "type": "Feature", "properties": { "denominaca": "Creche Municipal George Savalla Gomes - Palhaço Carequinha", "tipo": "Creche Municipal", "cre": 1, "bairro": "Centro", "codra": 2.0, "codra_nome": "CENTRO", "valor_ismif": 0.16252188152737099, "risco": "Muito Baixo" }, "geometry": { "type": "Point", "coordinates": [ -43.19363800011228, -22.906897999588573 ] } },
{ "type": "Feature", "properties": { "denominaca": "Espaço de Desenvolvimento Infantil Campos Salles", "tipo": "EDI", "cre": 1, "bairro": "Centro", "codra": 2.0, "codra_nome": "CENTRO", "valor_ismif": 0.22714900970459001, "risco": "Baixo" }, "geometry": { "type": "Point", "coordinates": [ -43.186536000372449, -22.908078999977683 ] } },
{ "type": "Feature", "properties": { "denominaca": "Espaço de Desenvolvimento Infantil Rachel de Queiroz", "tipo": "EDI", "cre": 1, "bairro": "Centro", "codra": 2.0, "codra_nome": "CENTRO", "valor_ismif": 0.44882848988408602, "risco": "Médio" }, "geometry": { "type": "Point", "coordinates": [ -43.194719000313725, -22.907016999678401 ] } },
{ "type": "Feature", "properties": { "denominaca": "Escola Municipal Estados Unidos", "tipo": "Escola Municipal", "cre": 1, "bairro": "Santa Teresa", "codra": 23.0, "codra_nome": "SANTA TEREZA", "valor_ismif": 0.365341949462891, "risco": "Baixo" }, "geometry": { "type": "Point", "coordinates": [ -43.196039999580762, -22.921679000119017 ] } },
{ "type": "Feature", "properties": { "denominaca": "Escola Municipal Mem de Sá", "tipo": "Escola Municipal", "cre": 1, "bairro": "Rio Comprido", "codra": 3.0, "codra_nome": "RIO COMPRIDO", "valor_ismif": 0.49315972761674398, "risco": "Médio" }, "geometry": { "type": "Point", "coordinates": [ -43.204377999736685, -22.924101999780515 ] } },
{ "type": "Feature", "properties": { "denominaca": "Escola Municipal Pereira Passos", "tipo": "Escola Municipal", "cre": 1, "bairro": "Rio Comprido", "codra": 3.0, "codra_nome": "RIO COMPRIDO", "valor_ismif": 0.55447014702691, "risco": "Médio" }, "geometry": { "type": "Point", "coordinates": [ -43.208578999871229, -22.924412000142382 ] } },
{ "type": "Feature", "properties": { "denominaca": "Escola Municipal Mario Claudio", "tipo": "Escola Municipal", "cre": 1, "bairro": "Rio Comprido", "codra": 3.0, "codra_nome": "RIO COMPRIDO", "valor_ismif": 0.58340131971571196, "risco": "Médio" }, "geometry": { "type": "Point", "coordinates": [ -43.211043999529352, -22.91723300002575 ] } },
{ "type": "Feature", "properties": { "denominaca": "Escola Municipal Jenny Gomes", "tipo": "Escola Municipal", "cre": 1, "bairro": "Rio Comprido", "codra": 3.0, "codra_nome": "RIO COMPRIDO", "valor_ismif": 0.52408222622341605, "risco": "Médio" }, "geometry": { "type": "Point", "coordinates": [ -43.210226000360493, -22.923037000367927 ] } },
{ "type": "Feature", "properties": { "denominaca": "Escola Municipal do Catumbi", "tipo": "Escola Municipal", "cre": 1, "bairro": "Catumbi", "codra": 3.0, "codra_nome": "RIO COMPRIDO", "valor_ismif": 0.50170771280924498, "risco": "Médio" }, "geometry": { "type": "Point", "coordinates": [ -43.194713999912736, -22.915927999925962 ] } },
{ "type": "Feature", "properties": { "denominaca": "Escola Municipal Canadá", "tipo": "Escola Municipal", "cre": 1, "bairro": "Estácio", "codra": 3.0, "codra_nome": "RIO COMPRIDO", "valor_ismif": 0.027961745554087002, "risco": "Muito Baixo" }, "geometry": { "type": "Point", "coordinates": [ -43.204315000474999, -22.915477999869498 ] } },
{ "type": "Feature", "properties": { "denominaca": "Creche Municipal Espaço Livre da Criança", "tipo": "Creche Municipal", "cre": 1, "bairro": "Estácio", "codra": 3.0, "codra_nome": "RIO COMPRIDO", "valor_ismif": 0.015223617023892, "risco": "Muito Baixo" }, "geometry": { "type": "Point", "coordinates": [ -43.203354000203333, -22.916117000046153 ] } },
{ "type": "Feature", "properties": { "denominaca": "Creche Municipal Direitos Humanos", "tipo": "Creche Municipal", "cre": 1, "bairro": "Rio Comprido", "codra": 3.0, "codra_nome": "RIO COMPRIDO", "valor_ismif": 0.014575803533512999, "risco": "Muito Baixo" }, "geometry": { "type": "Point", "coordinates": [ -43.201233000154296, -22.931336999971194 ] } },
{ "type": "Feature", "properties": { "denominaca": "Creche Municipal Sonho Infantil", "tipo": "Creche Municipal", "cre": 1, "bairro": "Rio Comprido", "codra": 3.0, "codra_nome": "RIO COMPRIDO", "valor_ismif": 0.0, "risco": "Muito Baixo" }, "geometry": { "type": "Point", "coordinates": [ -43.214381999818293, -22.927155000281026 ] } },
{ "type": "Feature", "properties": { "denominaca": "Creche Municipal Brincadeiras de Criança", "tipo": "Creche Municipal", "cre": 1, "bairro": "Catumbi", "codra": 3.0, "codra_nome": "RIO COMPRIDO", "valor_ismif": 0.031968445248073997, "risco": "Muito Baixo" }, "geometry": { "type": "Point", "coordinates": [ -43.198010000246477, -22.918929000276297 ] } },
{ "type": "Feature", "properties": { "denominaca": "Creche Municipal Campos da Paz", "tipo": "Creche Municipal", "cre": 1, "bairro": "Rio Comprido", "codra": 3.0, "codra_nome": "RIO COMPRIDO", "valor_ismif": 0.062738601197588006, "risco": "Muito Baixo" }, "geometry": { "type": "Point", "coordinates": [ -43.204004999858881, -22.922461000055385 ] } },
{ "type": "Feature", "properties": { "denominaca": "Creche Municipal Estácio de Sá", "tipo": "Creche Municipal", "cre": 1, "bairro": "Estácio", "codra": 3.0, "codra_nome": "RIO COMPRIDO", "valor_ismif": 0.031396552920340999, "risco": "Muito Baixo" }, "geometry": { "type": "Point", "coordinates": [ -43.203886000271353, -22.913974000006121 ] } },
{ "type": "Feature", "properties": { "denominaca": "Espaço de Desenvolvimento Infantil Professora Simone Sousa Pimentel", "tipo": "EDI", "cre": 1, "bairro": "Rio Comprido", "codra": 3.0, "codra_nome": "RIO COMPRIDO", "valor_ismif": 0.20408163265306101, "risco": "Baixo" }, "geometry": { "type": "Point", "coordinates": [ -43.213251999517773, -22.927633999951585 ] } },
{ "type": "Feature", "properties": { "denominaca": "Espaço de Desenvolvimento Infantil Lily Marinho", "tipo": "EDI", "cre": 1, "bairro": "Santa Teresa", "codra": 23.0, "codra_nome": "SANTA TEREZA", "valor_ismif": 0.070494540194248001, "risco": "Muito Baixo" }, "geometry": { "type": "Point", "coordinates": [ -43.193367000456639, -22.919001000155919 ] } },
{ "type": "Feature", "properties": { "denominaca": "Espaço de Desenvolvimento Infantil Zélia Gattai Amado", "tipo": "EDI", "cre": 1, "bairro": "Rio Comprido", "codra": 3.0, "codra_nome": "RIO COMPRIDO", "valor_ismif": 0.0, "risco": "Muito Baixo" }, "geometry": { "type": "Point", "coordinates": [ -43.200933999717698, -22.926866999863993 ] } },
{ "type": "Feature", "properties": { "denominaca": "Espaço de Desenvolvimento Infantil Beatriz Vicência Bandeira Ryff", "tipo": "EDI", "cre": 1, "bairro": "Estácio", "codra": 3.0, "codra_nome": "RIO COMPRIDO", "valor_ismif": 0.016522041880167, "risco": "Muito Baixo" }, "geometry": { "type": "Point", "coordinates": [ -43.205130999889455, -22.919861000164737 ] } },
{ "type": "Feature", "properties": { "denominaca": "Espaço de Desenvolvimento Infantil Fundação Leão XIII", "tipo": "EDI", "cre": 1, "bairro": "Estácio", "codra": 3.0, "codra_nome": "RIO COMPRIDO", "valor_ismif": 0.059125461578369003, "risco": "Muito Baixo" }, "geometry": { "type": "Point", "coordinates": [ -43.203214000415471, -22.919603000406976 ] } },
{ "type": "Feature", "properties": { "denominaca": "Espaço de Desenvolvimento Infantil Maria Luiza Nobre - Tia Luizinha", "tipo": "EDI", "cre": 1, "bairro": "Santa Teresa", "codra": 23.0, "codra_nome": "SANTA TEREZA", "valor_ismif": 0.42066902809954698, "risco": "Médio" }, "geometry": { "type": "Point", "coordinates": [ -43.196215000192318, -22.921988000306733 ] } },
{ "type": "Feature", "properties": { "denominaca": "Escola Municipal Gonçalves Dias", "tipo": "Escola Municipal", "cre": 1, "bairro": "Imperial de São Cristóvão", "codra": 7.0, "codra_nome": "SAO CRISTOVAO", "valor_ismif": 0.172369374169244, "risco": "Muito Baixo" }, "geometry": { "type": "Point", "coordinates": [ -43.220232999568225, -22.899212999726288 ] } },
{ "type": "Feature", "properties": { "denominaca": "Escola Municipal Nilo Peçanha", "tipo": "Escola Municipal", "cre": 1, "bairro": "Imperial de São Cristóvão", "codra": 7.0, "codra_nome": "SAO CRISTOVAO", "valor_ismif": 0.50081642998589404, "risco": "Médio" }, "geometry": { "type": "Point", "coordinates": [ -43.21966699960111, -22.904407999802721 ] } },
{ "type": "Feature", "properties": { "denominaca": "Escola Municipal Portugal", "tipo": "Escola Municipal", "cre": 1, "bairro": "Imperial de São Cristóvão", "codra": 7.0, "codra_nome": "SAO CRISTOVAO", "valor_ismif": 0.088345654156743003, "risco": "Muito Baixo" }, "geometry": { "type": "Point", "coordinates": [ -43.225148000383825, -22.902593000328473 ] } },
{ "type": "Feature", "properties": { "denominaca": "Escola Municipal Floriano Peixoto", "tipo": "Escola Municipal", "cre": 1, "bairro": "Imperial de São Cristóvão", "codra": 7.0, "codra_nome": "SAO CRISTOVAO", "valor_ismif": 0.095863777658213994, "risco": "Muito Baixo" }, "geometry": { "type": "Point", "coordinates": [ -43.227455999519705, -22.897628999736295 ] } },
{ "type": "Feature", "properties": { "denominaca": "Escola Municipal João de Camargo", "tipo": "Escola Municipal", "cre": 1, "bairro": "Vasco da Gama", "codra": 7.0, "codra_nome": "SAO CRISTOVAO", "valor_ismif": 0.22116216023763, "risco": "Baixo" }, "geometry": { "type": "Point", "coordinates": [ -43.230090000424973, -22.890273000200544 ] } },
{ "type": "Feature", "properties": { "denominaca": "Escola Municipal Marechal Trompowsky", "tipo": "Escola Municipal", "cre": 1, "bairro": "Imperial de São Cristóvão", "codra": 7.0, "codra_nome": "SAO CRISTOVAO", "valor_ismif": 0.50422771771748898, "risco": "Médio" }, "geometry": { "type": "Point", "coordinates": [ -43.23148300025386, -22.907952000346924 ] } },
{ "type": "Feature", "properties": { "denominaca": "Escola Municipal Humberto de Campos", "tipo": "Escola Municipal", "cre": 1, "bairro": "Mangueira", "codra": 7.0, "codra_nome": "SAO CRISTOVAO", "valor_ismif": 0.0069904363885220002, "risco": "Muito Baixo" }, "geometry": { "type": "Point", "coordinates": [ -43.23880500001578, -22.904332999866405 ] } },
{ "type": "Feature", "properties": { "denominaca": "Escola Municipal José Moreira da Silva", "tipo": "Escola Municipal", "cre": 1, "bairro": "Mangueira", "codra": 7.0, "codra_nome": "SAO CRISTOVAO", "valor_ismif": 0.0093601423761119993, "risco": "Muito Baixo" }, "geometry": { "type": "Point", "coordinates": [ -43.235303000004237, -22.903483000230697 ] } },
{ "type": "Feature", "properties": { "denominaca": "Escola Municipal Uruguai", "tipo": "Escola Municipal", "cre": 1, "bairro": "Benfica", "codra": 7.0, "codra_nome": "SAO CRISTOVAO", "valor_ismif": 0.21167795708838899, "risco": "Baixo" }, "geometry": { "type": "Point", "coordinates": [ -43.237755999872263, -22.898488000114462 ] } },
{ "type": "Feature", "properties": { "denominaca": "Escola Municipal Cardeal Leme", "tipo": "Escola Municipal", "cre": 1, "bairro": "Benfica", "codra": 7.0, "codra_nome": "SAO CRISTOVAO", "valor_ismif": 0.64566031922685296, "risco": "Alto" }, "geometry": { "type": "Point", "coordinates": [ -43.235739000145479, -22.889215000364935 ] } },
{ "type": "Feature", "properties": { "denominaca": "Escola Municipal Gonzaga da Gama Filho", "tipo": "Escola Municipal", "cre": 1, "bairro": "Benfica", "codra": 7.0, "codra_nome": "SAO CRISTOVAO", "valor_ismif": 0.322929541269938, "risco": "Baixo" }, "geometry": { "type": "Point", "coordinates": [ -43.237740000268197, -22.897677999620811 ] } },
{ "type": "Feature", "properties": { "denominaca": "Escola Municipal Alice do Amaral Peixoto", "tipo": "Escola Municipal", "cre": 1, "bairro": "Benfica", "codra": 7.0, "codra_nome": "SAO CRISTOVAO", "valor_ismif": 0.60849516732352105, "risco": "Alto" }, "geometry": { "type": "Point", "coordinates": [ -43.236201999776327, -22.889574000083606 ] } },
{ "type": "Feature", "properties": { "denominaca": "Escola Municipal Josué de Sousa Montello", "tipo": "Escola Municipal", "cre": 1, "bairro": "Imperial de São Cristóvão", "codra": 7.0, "codra_nome": "SAO CRISTOVAO", "valor_ismif": 0.172369374169244, "risco": "Muito Baixo" }, "geometry": { "type": "Point", "coordinates": [ -43.220213999966575, -22.899202999639169 ] } },
{ "type": "Feature", "properties": { "denominaca": "Escola Municipal Neuma Gonçalves da Silva - Dona Neuma", "tipo": "Escola Municipal", "cre": 1, "bairro": "Benfica", "codra": 7.0, "codra_nome": "SAO CRISTOVAO", "valor_ismif": 0.29559102971503098, "risco": "Baixo" }, "geometry": { "type": "Point", "coordinates": [ -43.237829999803644, -22.897960000032665 ] } },
{ "type": "Feature", "properties": { "denominaca": "Escola Municipal Edmundo Bittencourt", "tipo": "Escola Municipal", "cre": 1, "bairro": "Benfica", "codra": 7.0, "codra_nome": "SAO CRISTOVAO", "valor_ismif": 0.082080989413790995, "risco": "Muito Baixo" }, "geometry": { "type": "Point", "coordinates": [ -43.233893999999012, -22.892207000125076 ] } },
{ "type": "Feature", "properties": { "denominaca": "Escola Municipal Mestre Waldemiro", "tipo": "Escola Municipal", "cre": 1, "bairro": "Imperial de São Cristóvão", "codra": 7.0, "codra_nome": "SAO CRISTOVAO", "valor_ismif": 0.42672364976671001, "risco": "Médio" }, "geometry": { "type": "Point", "coordinates": [ -43.229128999699526, -22.906442999824435 ] } },
{ "type": "Feature", "properties": { "denominaca": "Creche Municipal Adalberto Ismael de Souza", "tipo": "Creche Municipal", "cre": 1, "bairro": "Mangueira", "codra": 7.0, "codra_nome": "SAO CRISTOVAO", "valor_ismif": 0.026210792859395, "risco": "Muito Baixo" }, "geometry": { "type": "Point", "coordinates": [ -43.232484999935551, -22.906374000352418 ] } },
{ "type": "Feature", "properties": { "denominaca": "Creche Municipal Deputado Luiz Eduardo de Magalhães", "tipo": "Creche Municipal", "cre": 1, "bairro": "Imperial de São Cristóvão", "codra": 7.0, "codra_nome": "SAO CRISTOVAO", "valor_ismif": 0.054390123257270002, "risco": "Muito Baixo" }, "geometry": { "type": "Point", "coordinates": [ -43.235698000196642, -22.89845899990474 ] } },
{ "type": "Feature", "properties": { "denominaca": "Creche Municipal Vovó Lucíola", "tipo": "Creche Municipal", "cre": 1, "bairro": "Mangueira", "codra": 7.0, "codra_nome": "SAO CRISTOVAO", "valor_ismif": 0.13294048309326201, "risco": "Muito Baixo" }, "geometry": { "type": "Point", "coordinates": [ -43.240860999736974, -22.902712000369952 ] } },
{ "type": "Feature", "properties": { "denominaca": "Creche Municipal Homero José dos Santos", "tipo": "Creche Municipal", "cre": 1, "bairro": "Mangueira", "codra": 7.0, "codra_nome": "SAO CRISTOVAO", "valor_ismif": 0.0093601423761119993, "risco": "Muito Baixo" }, "geometry": { "type": "Point", "coordinates": [ -43.236527999801282, -22.903302999896656 ] } },
{ "type": "Feature", "properties": { "denominaca": "Creche Municipal Eduardo Moreira dos Santos", "tipo": "Creche Municipal", "cre": 1, "bairro": "Mangueira", "codra": 7.0, "codra_nome": "SAO CRISTOVAO", "valor_ismif": 0.0089701364437740003, "risco": "Muito Baixo" }, "geometry": { "type": "Point", "coordinates": [ -43.235857000109974, -22.902678999868822 ] } },
{ "type": "Feature", "properties": { "denominaca": "Creche Municipal Francisco Alves", "tipo": "Creche Municipal", "cre": 1, "bairro": "Vasco da Gama", "codra": 7.0, "codra_nome": "SAO CRISTOVAO", "valor_ismif": 0.33256558312310103, "risco": "Baixo" }, "geometry": { "type": "Point", "coordinates": [ -43.230060000246006, -22.889746000152535 ] } },
{ "type": "Feature", "properties": { "denominaca": "Creche Municipal Nação Mangueirense", "tipo": "Creche Municipal", "cre": 1, "bairro": "Mangueira", "codra": 7.0, "codra_nome": "SAO CRISTOVAO", "valor_ismif": 0.044678003891655001, "risco": "Muito Baixo" }, "geometry": { "type": "Point", "coordinates": [ -43.239478000234676, -22.905354000440887 ] } },
{ "type": "Feature", "properties": { "denominaca": "Creche Municipal Samora Machel", "tipo": "Creche Municipal", "cre": 1, "bairro": "Manguinhos", "codra": 10.0, "codra_nome": "RAMOS", "valor_ismif": 0.48355187310112802, "risco": "Médio" }, "geometry": { "type": "Point", "coordinates": [ -43.248667000028718, -22.884161999749114 ] } },
{ "type": "Feature", "properties": { "denominaca": "Creche Municipal Vasquinho", "tipo": "Creche Municipal", "cre": 1, "bairro": "Vasco da Gama", "codra": 7.0, "codra_nome": "SAO CRISTOVAO", "valor_ismif": 0.37029669019910999, "risco": "Baixo" }, "geometry": { "type": "Point", "coordinates": [ -43.227433000462547, -22.886431999654601 ] } },
{ "type": "Feature", "properties": { "denominaca": "Creche Municipal Arara Azul", "tipo": "Creche Municipal", "cre": 1, "bairro": "Benfica", "codra": 7.0, "codra_nome": "SAO CRISTOVAO", "valor_ismif": 0.59634228141940404, "risco": "Médio" }, "geometry": { "type": "Point", "coordinates": [ -43.242109999893358, -22.889247000110796 ] } },
{ "type": "Feature", "properties": { "denominaca": "Espaço de Desenvolvimento Infantil Professora Dayse Malagole", "tipo": "EDI", "cre": 1, "bairro": "Vasco da Gama", "codra": 7.0, "codra_nome": "SAO CRISTOVAO", "valor_ismif": 0.086700916290282995, "risco": "Muito Baixo" }, "geometry": { "type": "Point", "coordinates": [ -43.230826999736514, -22.89074800031808 ] } },
{ "type": "Feature", "properties": { "denominaca": "Espaço de Desenvolvimento Infantil Morro dos Telégrafos", "tipo": "EDI", "cre": 1, "bairro": "Mangueira", "codra": 7.0, "codra_nome": "SAO CRISTOVAO", "valor_ismif": 0.0, "risco": "Muito Baixo" }, "geometry": { "type": "Point", "coordinates": [ -43.236696000264274, -22.900286999920507 ] } },
{ "type": "Feature", "properties": { "denominaca": "Espaço de Desenvolvimento Infantil Dois de Julho", "tipo": "EDI", "cre": 1, "bairro": "Benfica", "codra": 7.0, "codra_nome": "SAO CRISTOVAO", "valor_ismif": 0.023736793944176, "risco": "Muito Baixo" }, "geometry": { "type": "Point", "coordinates": [ -43.233073999725228, -22.891507000085745 ] } },
{ "type": "Feature", "properties": { "denominaca": "Escola Municipal Joaquim Manuel de Macedo", "tipo": "Escola Municipal", "cre": 1, "bairro": "Paquetá", "codra": 21.0, "codra_nome": "PAQUETA", "valor_ismif": 0.25696813795301598, "risco": "Baixo" }, "geometry": { "type": "Point", "coordinates": [ -43.109534000324381, -22.753150999944591 ] } },
{ "type": "Feature", "properties": { "denominaca": "Escola Municipal Machado de Assis", "tipo": "Escola Municipal", "cre": 1, "bairro": "Santa Teresa", "codra": 23.0, "codra_nome": "SANTA TEREZA", "valor_ismif": 0.0, "risco": "Muito Baixo" }, "geometry": { "type": "Point", "coordinates": [ -43.18210900006396, -22.918154000439216 ] } },
{ "type": "Feature", "properties": { "denominaca": "Escola Municipal Santa Catarina", "tipo": "Escola Municipal", "cre": 1, "bairro": "Santa Teresa", "codra": 23.0, "codra_nome": "SANTA TEREZA", "valor_ismif": 0.024252811203831999, "risco": "Muito Baixo" }, "geometry": { "type": "Point", "coordinates": [ -43.19158799980142, -22.915535000324954 ] } },
{ "type": "Feature", "properties": { "denominaca": "Escola Municipal Julia Lopes de Almeida", "tipo": "Escola Municipal", "cre": 1, "bairro": "Santa Teresa", "codra": 23.0, "codra_nome": "SANTA TEREZA", "valor_ismif": 0.0, "risco": "Muito Baixo" }, "geometry": { "type": "Point", "coordinates": [ -43.204257000225233, -22.93655099993957 ] } },
{ "type": "Feature", "properties": { "denominaca": "Escola Municipal Juan Antonio Samaranch", "tipo": "Escola Municipal", "cre": 1, "bairro": "Rio Comprido", "codra": 3.0, "codra_nome": "RIO COMPRIDO", "valor_ismif": 0.0, "risco": "Muito Baixo" }, "geometry": { "type": "Point", "coordinates": [ -43.198581000443014, -22.931054000426752 ] } },
{ "type": "Feature", "properties": { "denominaca": "Creche Municipal José Marinho de Oliveira", "tipo": "Creche Municipal", "cre": 1, "bairro": "Santa Teresa", "codra": 23.0, "codra_nome": "SANTA TEREZA", "valor_ismif": 0.0, "risco": "Muito Baixo" }, "geometry": { "type": "Point", "coordinates": [ -43.202501999690213, -22.934911999869012 ] } },
{ "type": "Feature", "properties": { "denominaca": "Creche Municipal Fallet", "tipo": "Creche Municipal", "cre": 1, "bairro": "Santa Teresa", "codra": 23.0, "codra_nome": "SANTA TEREZA", "valor_ismif": 0.0074463344138599999, "risco": "Muito Baixo" }, "geometry": { "type": "Point", "coordinates": [ -43.195756000113995, -22.927234999774772 ] } },
{ "type": "Feature", "properties": { "denominaca": "CDEI Amalia Fernandez Conde (Casarão)", "tipo": "CDEI - Centro de Desenvolvimento de Educação Integrada", "cre": 1, "bairro": "Santa Teresa", "codra": 23.0, "codra_nome": "SANTA TEREZA", "valor_ismif": 0.0, "risco": "Muito Baixo" }, "geometry": { "type": "Point", "coordinates": [ -43.201350361763794, -22.934192638243136 ] } },
{ "type": "Feature", "properties": { "denominaca": "Espaço de Desenvolvimento Infantil Heloísa Marinho", "tipo": "EDI", "cre": 1, "bairro": "Santa Teresa", "codra": 23.0, "codra_nome": "SANTA TEREZA", "valor_ismif": 0.0053191486191239996, "risco": "Muito Baixo" }, "geometry": { "type": "Point", "coordinates": [ -43.194950999654445, -22.929563999546513 ] } },
{ "type": "Feature", "properties": { "denominaca": "Escola Municipal Deodoro", "tipo": "Escola Municipal", "cre": 2, "bairro": "Glória", "codra": 4.0, "codra_nome": "BOTAFOGO", "valor_ismif": 0.095045214113981993, "risco": "Muito Baixo" }, "geometry": { "type": "Point", "coordinates": [ -43.177159999581903, -22.91771500042293 ] } },
{ "type": "Feature", "properties": { "denominaca": "Escola Municipal Maria Leopoldina", "tipo": "Escola Municipal", "cre": 2, "bairro": "Catete", "codra": 4.0, "codra_nome": "BOTAFOGO", "valor_ismif": 0.036748817988804, "risco": "Muito Baixo" }, "geometry": { "type": "Point", "coordinates": [ -43.181773999989367, -22.922883000448682 ] } },
{ "type": "Feature", "properties": { "denominaca": "Escola Municipal Alberto Barth", "tipo": "Escola Municipal", "cre": 2, "bairro": "Flamengo", "codra": 4.0, "codra_nome": "BOTAFOGO", "valor_ismif": 0.046136880407528003, "risco": "Muito Baixo" }, "geometry": { "type": "Point", "coordinates": [ -43.176470000416415, -22.940710999592575 ] } },
{ "type": "Feature", "properties": { "denominaca": "Escola Municipal Educandário Romão de Mattos Duarte", "tipo": "Escola Municipal", "cre": 2, "bairro": "Flamengo", "codra": 4.0, "codra_nome": "BOTAFOGO", "valor_ismif": 0.049019509173453997, "risco": "Muito Baixo" }, "geometry": { "type": "Point", "coordinates": [ -43.17882799976308, -22.936554000065762 ] } },
{ "type": "Feature", "properties": { "denominaca": "Escola Municipal José de Alencar", "tipo": "Escola Municipal", "cre": 2, "bairro": "Laranjeiras", "codra": 4.0, "codra_nome": "BOTAFOGO", "valor_ismif": 0.26031515121460003, "risco": "Baixo" }, "geometry": { "type": "Point", "coordinates": [ -43.189868999561845, -22.937122000252163 ] } },
{ "type": "Feature", "properties": { "denominaca": "Escola Municipal Anne Frank", "tipo": "Escola Municipal", "cre": 2, "bairro": "Laranjeiras", "codra": 4.0, "codra_nome": "BOTAFOGO", "valor_ismif": 0.049583525127835003, "risco": "Muito Baixo" }, "geometry": { "type": "Point", "coordinates": [ -43.183367000212428, -22.938817999630103 ] } },
{ "type": "Feature", "properties": { "denominaca": "Escola Municipal Albert Schweitzer", "tipo": "Escola Municipal", "cre": 2, "bairro": "Laranjeiras", "codra": 4.0, "codra_nome": "BOTAFOGO", "valor_ismif": 0.11859181586732299, "risco": "Muito Baixo" }, "geometry": { "type": "Point", "coordinates": [ -43.191780000277895, -22.940257999790425 ] } },
{ "type": "Feature", "properties": { "denominaca": "Escola Municipal Vital Brasil", "tipo": "Escola Municipal", "cre": 2, "bairro": "Flamengo", "codra": 4.0, "codra_nome": "BOTAFOGO", "valor_ismif": 0.17672782474094001, "risco": "Muito Baixo" }, "geometry": { "type": "Point", "coordinates": [ -43.176065000422376, -22.925606000436218 ] } },
{ "type": "Feature", "properties": { "denominaca": "Escola Municipal Guararapes Cândido", "tipo": "Escola Municipal", "cre": 2, "bairro": "Cosme Velho", "codra": 4.0, "codra_nome": "BOTAFOGO", "valor_ismif": 0.0068506276607509997, "risco": "Muito Baixo" }, "geometry": { "type": "Point", "coordinates": [ -43.204268000260726, -22.943753000357237 ] } },
{ "type": "Feature", "properties": { "denominaca": "Escola Municipal Francisco Alves", "tipo": "Escola Municipal", "cre": 2, "bairro": "Botafogo", "codra": 4.0, "codra_nome": "BOTAFOGO", "valor_ismif": 0.45086654027303102, "risco": "Médio" }, "geometry": { "type": "Point", "coordinates": [ -43.182122999919287, -22.953983999994513 ] } },
{ "type": "Feature", "properties": { "denominaca": "Escola Municipal Joaquim Nabuco", "tipo": "Escola Municipal", "cre": 2, "bairro": "Botafogo", "codra": 4.0, "codra_nome": "BOTAFOGO", "valor_ismif": 0.25814859072367402, "risco": "Baixo" }, "geometry": { "type": "Point", "coordinates": [ -43.188154000208407, -22.954406000223514 ] } },
{ "type": "Feature", "properties": { "denominaca": "Escola Municipal México", "tipo": "Escola Municipal", "cre": 2, "bairro": "Botafogo", "codra": 4.0, "codra_nome": "BOTAFOGO", "valor_ismif": 0.26552594226339599, "risco": "Baixo" }, "geometry": { "type": "Point", "coordinates": [ -43.191760999937507, -22.952705999634983 ] } },
{ "type": "Feature", "properties": { "denominaca": "Escola Municipal Presidente Arthur da Costa e Silva", "tipo": "Escola Municipal", "cre": 2, "bairro": "Botafogo", "codra": 4.0, "codra_nome": "BOTAFOGO", "valor_ismif": 0.32746103535527799, "risco": "Baixo" }, "geometry": { "type": "Point", "coordinates": [ -43.18659099985581, -22.945557999941943 ] } },
{ "type": "Feature", "properties": { "denominaca": "Escola Municipal João Saldanha", "tipo": "Escola Municipal", "cre": 2, "bairro": "Botafogo", "codra": 4.0, "codra_nome": "BOTAFOGO", "valor_ismif": 0.34949351371602799, "risco": "Baixo" }, "geometry": { "type": "Point", "coordinates": [ -43.181618999735569, -22.953778999653064 ] } },
{ "type": "Feature", "properties": { "denominaca": "Escola Municipal Joaquim Abílio Borges", "tipo": "Escola Municipal", "cre": 2, "bairro": "Humaitá", "codra": 4.0, "codra_nome": "BOTAFOGO", "valor_ismif": 0.18194745511424801, "risco": "Muito Baixo" }, "geometry": { "type": "Point", "coordinates": [ -43.196814000067526, -22.954242000017683 ] } },
{ "type": "Feature", "properties": { "denominaca": "Escola Municipal Estácio de Sá", "tipo": "Escola Municipal", "cre": 2, "bairro": "Urca", "codra": 4.0, "codra_nome": "BOTAFOGO", "valor_ismif": 0.068673393000727001, "risco": "Muito Baixo" }, "geometry": { "type": "Point", "coordinates": [ -43.157390999752522, -22.946105999954707 ] } },
{ "type": "Feature", "properties": { "denominaca": "Escola Municipal Minas Gerais", "tipo": "Escola Municipal", "cre": 2, "bairro": "Urca", "codra": 4.0, "codra_nome": "BOTAFOGO", "valor_ismif": 0.29590615166558198, "risco": "Baixo" }, "geometry": { "type": "Point", "coordinates": [ -43.168885000194308, -22.953821999748893 ] } },
{ "type": "Feature", "properties": { "denominaca": "Escola Municipal Senador Corrêa", "tipo": "Escola Municipal", "cre": 2, "bairro": "Laranjeiras", "codra": 4.0, "codra_nome": "BOTAFOGO", "valor_ismif": 0.241716901461283, "risco": "Baixo" }, "geometry": { "type": "Point", "coordinates": [ -43.181010999722709, -22.933988999731405 ] } },
{ "type": "Feature", "properties": { "denominaca": "Ciep Presidente Tancredo Neves", "tipo": "CIEP", "cre": 2, "bairro": "Glória", "codra": 4.0, "codra_nome": "BOTAFOGO", "valor_ismif": 0.082525592380100002, "risco": "Muito Baixo" }, "geometry": { "type": "Point", "coordinates": [ -43.176684999937791, -22.922785000214244 ] } },
{ "type": "Feature", "properties": { "denominaca": "Ciep Presidente Agostinho Neto", "tipo": "CIEP", "cre": 2, "bairro": "Humaitá", "codra": 4.0, "codra_nome": "BOTAFOGO", "valor_ismif": 0.022835424211289999, "risco": "Muito Baixo" }, "geometry": { "type": "Point", "coordinates": [ -43.199723000258047, -22.959167000327259 ] } },
{ "type": "Feature", "properties": { "denominaca": "Creche Municipal Tia Amália", "tipo": "Creche Municipal", "cre": 2, "bairro": "Cosme Velho", "codra": 4.0, "codra_nome": "BOTAFOGO", "valor_ismif": 0.21159841749403199, "risco": "Baixo" }, "geometry": { "type": "Point", "coordinates": [ -43.205546000337584, -22.941447000418368 ] } },
{ "type": "Feature", "properties": { "denominaca": "Creche Municipal Aracy Guimarães Rosa", "tipo": "Creche Municipal", "cre": 2, "bairro": "Catete", "codra": 4.0, "codra_nome": "BOTAFOGO", "valor_ismif": 0.173888492584229, "risco": "Muito Baixo" }, "geometry": { "type": "Point", "coordinates": [ -43.17941699974299, -22.928943000132083 ] } },
{ "type": "Feature", "properties": { "denominaca": "Espaço de Desenvolvimento Infantil Marechal Hermes", "tipo": "EDI", "cre": 2, "bairro": "Botafogo", "codra": 4.0, "codra_nome": "BOTAFOGO", "valor_ismif": 0.28392921447753899, "risco": "Baixo" }, "geometry": { "type": "Point", "coordinates": [ -43.195141000418957, -22.954276000405656 ] } },
{ "type": "Feature", "properties": { "denominaca": "Espaço de Desenvolvimento Infantil Casa da Criança", "tipo": "EDI", "cre": 2, "bairro": "Botafogo", "codra": 4.0, "codra_nome": "BOTAFOGO", "valor_ismif": 0.21214188469780801, "risco": "Baixo" }, "geometry": { "type": "Point", "coordinates": [ -43.181595999647641, -22.955822999855616 ] } },
{ "type": "Feature", "properties": { "denominaca": "Espaço de Desenvolvimento Infantil Gabriela Mistral", "tipo": "EDI", "cre": 2, "bairro": "Urca", "codra": 4.0, "codra_nome": "BOTAFOGO", "valor_ismif": 0.057398676872253002, "risco": "Muito Baixo" }, "geometry": { "type": "Point", "coordinates": [ -43.164500000399357, -22.954250000258568 ] } },
{ "type": "Feature", "properties": { "denominaca": "Espaço de Desenvolvimento Infantil Professora Sarita Konder", "tipo": "EDI", "cre": 2, "bairro": "Laranjeiras", "codra": 4.0, "codra_nome": "BOTAFOGO", "valor_ismif": 0.0, "risco": "Muito Baixo" }, "geometry": { "type": "Point", "coordinates": [ -43.197200000128539, -22.936760000441428 ] } },
{ "type": "Feature", "properties": { "denominaca": "Espaço de Desenvolvimento Infantil Claudio Cavalcanti", "tipo": "EDI", "cre": 2, "bairro": "Botafogo", "codra": 4.0, "codra_nome": "BOTAFOGO", "valor_ismif": 0.25777414570683999, "risco": "Baixo" }, "geometry": { "type": "Point", "coordinates": [ -43.188186000028395, -22.95441900015992 ] } },
{ "type": "Feature", "properties": { "denominaca": "Espaço de Desenvolvimento Infantil Irmã Margarita Alarcón", "tipo": "EDI", "cre": 2, "bairro": "Laranjeiras", "codra": 4.0, "codra_nome": "BOTAFOGO", "valor_ismif": 0.0, "risco": "Muito Baixo" }, "geometry": { "type": "Point", "coordinates": [ -43.190496000129109, -22.931115000392484 ] } },
{ "type": "Feature", "properties": { "denominaca": "Escola Municipal São Tomás de Aquino", "tipo": "Escola Municipal", "cre": 2, "bairro": "Leme", "codra": 5.0, "codra_nome": "COPACABANA", "valor_ismif": 0.19017848562687001, "risco": "Muito Baixo" }, "geometry": { "type": "Point", "coordinates": [ -43.164981000111268, -22.961546000089108 ] } },
{ "type": "Feature", "properties": { "denominaca": "Escola Municipal Doutor Cícero Penna", "tipo": "Escola Municipal", "cre": 2, "bairro": "Copacabana", "codra": 5.0, "codra_nome": "COPACABANA", "valor_ismif": 0.064753754933674995, "risco": "Muito Baixo" }, "geometry": { "type": "Point", "coordinates": [ -43.181139000100913, -22.968647000437816 ] } },
{ "type": "Feature", "properties": { "denominaca": "Escola Municipal Doutor Cocio Barcellos", "tipo": "Escola Municipal", "cre": 2, "bairro": "Copacabana", "codra": 5.0, "codra_nome": "COPACABANA", "valor_ismif": 0.030378346641858001, "risco": "Muito Baixo" }, "geometry": { "type": "Point", "coordinates": [ -43.189062999579029, -22.97482799958803 ] } },
{ "type": "Feature", "properties": { "denominaca": "Escola Municipal Dom Aquino Corrêa", "tipo": "Escola Municipal", "cre": 2, "bairro": "Copacabana", "codra": 5.0, "codra_nome": "COPACABANA", "valor_ismif": 0.040185684853412, "risco": "Muito Baixo" }, "geometry": { "type": "Point", "coordinates": [ -43.180508000366217, -22.965094000387911 ] } },
{ "type": "Feature", "properties": { "denominaca": "Escola Municipal Penedo", "tipo": "Escola Municipal", "cre": 2, "bairro": "Copacabana", "codra": 5.0, "codra_nome": "COPACABANA", "valor_ismif": 0.10852165222168, "risco": "Muito Baixo" }, "geometry": { "type": "Point", "coordinates": [ -43.192210000360525, -22.982712000114937 ] } },
{ "type": "Feature", "properties": { "denominaca": "Escola Municipal Roma", "tipo": "Escola Municipal", "cre": 2, "bairro": "Copacabana", "codra": 5.0, "codra_nome": "COPACABANA", "valor_ismif": 0.051993793911403997, "risco": "Muito Baixo" }, "geometry": { "type": "Point", "coordinates": [ -43.176144999543453, -22.96505999987907 ] } },
{ "type": "Feature", "properties": { "denominaca": "Escola Municipal Alencastro Guimarães", "tipo": "Escola Municipal", "cre": 2, "bairro": "Copacabana", "codra": 5.0, "codra_nome": "COPACABANA", "valor_ismif": 0.024252811203831999, "risco": "Muito Baixo" }, "geometry": { "type": "Point", "coordinates": [ -43.180964999973149, -22.96469100040564 ] } },
{ "type": "Feature", "properties": { "denominaca": "Creche Municipal Irmãs Baptista", "tipo": "Creche Municipal", "cre": 2, "bairro": "Copacabana", "codra": 5.0, "codra_nome": "COPACABANA", "valor_ismif": 0.0072879017667570002, "risco": "Muito Baixo" }, "geometry": { "type": "Point", "coordinates": [ -43.187120000195748, -22.966176000337242 ] } },
{ "type": "Feature", "properties": { "denominaca": "Creche Muncipal Tia Sonia Crispiniano", "tipo": "Creche Municipal", "cre": 2, "bairro": "Copacabana", "codra": 5.0, "codra_nome": "COPACABANA", "valor_ismif": 0.0, "risco": "Muito Baixo" }, "geometry": { "type": "Point", "coordinates": [ -43.193900000086472, -22.962860000426929 ] } },
{ "type": "Feature", "properties": { "denominaca": "Espaço de Desenvolvimento Infantil Dona Marcela", "tipo": "EDI", "cre": 2, "bairro": "Leme", "codra": 5.0, "codra_nome": "COPACABANA", "valor_ismif": 0.0, "risco": "Muito Baixo" }, "geometry": { "type": "Point", "coordinates": [ -43.167882000341969, -22.960596000303767 ] } },
{ "type": "Feature", "properties": { "denominaca": "Espaço de Desenvolvimento Infantil Porto Rico", "tipo": "EDI", "cre": 2, "bairro": "Copacabana", "codra": 5.0, "codra_nome": "COPACABANA", "valor_ismif": 0.0054347822847570001, "risco": "Muito Baixo" }, "geometry": { "type": "Point", "coordinates": [ -43.178694000340776, -22.961381999869694 ] } },
{ "type": "Feature", "properties": { "denominaca": "Escola Municipal Presidente José Linhares", "tipo": "Escola Municipal", "cre": 2, "bairro": "Ipanema", "codra": 6.0, "codra_nome": "LAGOA", "valor_ismif": 0.14950784047444701, "risco": "Muito Baixo" }, "geometry": { "type": "Point", "coordinates": [ -43.199035999858395, -22.983331999997354 ] } },
{ "type": "Feature", "properties": { "denominaca": "Escola Municipal Henrique Dodsworth", "tipo": "Escola Municipal", "cre": 2, "bairro": "Ipanema", "codra": 6.0, "codra_nome": "LAGOA", "valor_ismif": 0.17283798853556301, "risco": "Muito Baixo" }, "geometry": { "type": "Point", "coordinates": [ -43.213579000381557, -22.981954999600287 ] } },
{ "type": "Feature", "properties": { "denominaca": "Escola Municipal Marília de Dirceu", "tipo": "Escola Municipal", "cre": 2, "bairro": "Ipanema", "codra": 6.0, "codra_nome": "LAGOA", "valor_ismif": 0.052124339601267999, "risco": "Muito Baixo" }, "geometry": { "type": "Point", "coordinates": [ -43.196939000122001, -22.983813000448087 ] } },
{ "type": "Feature", "properties": { "denominaca": "Escola Municipal Castelnuovo", "tipo": "Escola Municipal", "cre": 2, "bairro": "Ipanema", "codra": 6.0, "codra_nome": "LAGOA", "valor_ismif": 0.064738366914831993, "risco": "Muito Baixo" }, "geometry": { "type": "Point", "coordinates": [ -43.191995999796511, -22.987349999748393 ] } },
{ "type": "Feature", "properties": { "denominaca": "Escola Municipal George Pfisterer", "tipo": "Escola Municipal", "cre": 2, "bairro": "Leblon", "codra": 6.0, "codra_nome": "LAGOA", "valor_ismif": 0.34490585327148399, "risco": "Baixo" }, "geometry": { "type": "Point", "coordinates": [ -43.222089000417853, -22.97923900008686 ] } },
{ "type": "Feature", "properties": { "denominaca": "Escola Municipal Santos Anjos", "tipo": "Escola Municipal", "cre": 2, "bairro": "Leblon", "codra": 6.0, "codra_nome": "LAGOA", "valor_ismif": 0.12224863013442699, "risco": "Muito Baixo" }, "geometry": { "type": "Point", "coordinates": [ -43.217028999722032, -22.981558999804466 ] } },
{ "type": "Feature", "properties": { "denominaca": "Escola Municipal Edna Poncioni Ferreira", "tipo": "Escola Municipal", "cre": 2, "bairro": "Lagoa", "codra": 6.0, "codra_nome": "LAGOA", "valor_ismif": 0.064581433931985996, "risco": "Muito Baixo" }, "geometry": { "type": "Point", "coordinates": [ -43.197809999811717, -22.976214000152261 ] } },
{ "type": "Feature", "properties": { "denominaca": "Escola Municipal Pedro Ernesto", "tipo": "Escola Municipal", "cre": 2, "bairro": "Lagoa", "codra": 6.0, "codra_nome": "LAGOA", "valor_ismif": 0.32777865036674197, "risco": "Baixo" }, "geometry": { "type": "Point", "coordinates": [ -43.203448999717025, -22.961108999555478 ] } },
{ "type": "Feature", "properties": { "denominaca": "Escola Municipal Capistrano de Abreu", "tipo": "Escola Municipal", "cre": 2, "bairro": "Jardim Botânico", "codra": 6.0, "codra_nome": "LAGOA", "valor_ismif": 0.225415047178877, "risco": "Baixo" }, "geometry": { "type": "Point", "coordinates": [ -43.228698000050514, -22.965601000091215 ] } },
{ "type": "Feature", "properties": { "denominaca": "Escola Municipal Shakespeare", "tipo": "Escola Municipal", "cre": 2, "bairro": "Lagoa", "codra": 6.0, "codra_nome": "LAGOA", "valor_ismif": 0.29728700676742897, "risco": "Baixo" }, "geometry": { "type": "Point", "coordinates": [ -43.216266999621475, -22.96315100044691 ] } },
{ "type": "Feature", "properties": { "denominaca": "Escola Municipal Camilo Castelo Branco", "tipo": "Escola Municipal", "cre": 2, "bairro": "Jardim Botânico", "codra": 6.0, "codra_nome": "LAGOA", "valor_ismif": 0.244093003480331, "risco": "Baixo" }, "geometry": { "type": "Point", "coordinates": [ -43.228951999627334, -22.965737999918932 ] } },
{ "type": "Feature", "properties": { "denominaca": "Escola Especial Municipal Marly Fróes Peixoto", "tipo": "Escola Especial Municipal", "cre": 2, "bairro": "Jardim Botânico", "codra": 6.0, "codra_nome": "LAGOA", "valor_ismif": 0.35975977579752599, "risco": "Baixo" }, "geometry": { "type": "Point", "coordinates": [ -43.218546999840484, -22.963912000394966 ] } },
{ "type": "Feature", "properties": { "denominaca": "Escola Municipal Manoel Cícero", "tipo": "Escola Municipal", "cre": 2, "bairro": "Gávea", "codra": 6.0, "codra_nome": "LAGOA", "valor_ismif": 0.21033523393713899, "risco": "Baixo" }, "geometry": { "type": "Point", "coordinates": [ -43.226854999580084, -22.973270000368672 ] } },
{ "type": "Feature", "properties": { "denominaca": "Escola Municipal Júlio de Castilhos", "tipo": "Escola Municipal", "cre": 2, "bairro": "Gávea", "codra": 6.0, "codra_nome": "LAGOA", "valor_ismif": 0.27018946789680598, "risco": "Baixo" }, "geometry": { "type": "Point", "coordinates": [ -43.227064000001803, -22.973584999776872 ] } },
{ "type": "Feature", "properties": { "denominaca": "Escola Municipal Artur Ramos", "tipo": "Escola Municipal", "cre": 2, "bairro": "Gávea", "codra": 6.0, "codra_nome": "LAGOA", "valor_ismif": 0.32859831270964301, "risco": "Baixo" }, "geometry": { "type": "Point", "coordinates": [ -43.230902000467282, -22.977408999655559 ] } },
{ "type": "Feature", "properties": { "denominaca": "Escola Municipal Luiz Delfino", "tipo": "Escola Municipal", "cre": 2, "bairro": "Gávea", "codra": 6.0, "codra_nome": "LAGOA", "valor_ismif": 0.18628055491345999, "risco": "Muito Baixo" }, "geometry": { "type": "Point", "coordinates": [ -43.23368300048071, -22.978158000280242 ] } },
{ "type": "Feature", "properties": { "denominaca": "Escola Municipal Christiano Hamann", "tipo": "Escola Municipal", "cre": 2, "bairro": "Gávea", "codra": 6.0, "codra_nome": "LAGOA", "valor_ismif": 0.15440416336059601, "risco": "Muito Baixo" }, "geometry": { "type": "Point", "coordinates": [ -43.233916999532873, -22.977954000317908 ] } },
{ "type": "Feature", "properties": { "denominaca": "Escola Municipal Desembargador Oscar Tenório", "tipo": "Escola Municipal", "cre": 2, "bairro": "Gávea", "codra": 6.0, "codra_nome": "LAGOA", "valor_ismif": 0.17040594418843599, "risco": "Muito Baixo" }, "geometry": { "type": "Point", "coordinates": [ -43.227962000223016, -22.977525999952572 ] } },
{ "type": "Feature", "properties": { "denominaca": "Escola Municipal Almirante Tamandaré", "tipo": "Escola Municipal", "cre": 2, "bairro": "Vidigal", "codra": 6.0, "codra_nome": "LAGOA", "valor_ismif": 0.0, "risco": "Muito Baixo" }, "geometry": { "type": "Point", "coordinates": [ -43.235579000067929, -22.993697000003841 ] } },
{ "type": "Feature", "properties": { "denominaca": "Escola Municipal Lúcia Miguel Pereira", "tipo": "Escola Municipal", "cre": 2, "bairro": "São Conrado", "codra": 6.0, "codra_nome": "LAGOA", "valor_ismif": 0.050448042281130999, "risco": "Muito Baixo" }, "geometry": { "type": "Point", "coordinates": [ -43.272181000177099, -22.997417000223386 ] } },
{ "type": "Feature", "properties": { "denominaca": "Escola Municipal Prefeito Djalma Maranhão", "tipo": "Escola Municipal", "cre": 2, "bairro": "Vidigal", "codra": 6.0, "codra_nome": "LAGOA", "valor_ismif": 0.0, "risco": "Muito Baixo" }, "geometry": { "type": "Point", "coordinates": [ -43.234914000430017, -22.995358999831996 ] } },
{ "type": "Feature", "properties": { "denominaca": "Escola Municipal Sergio Vieira de Mello", "tipo": "Escola Municipal", "cre": 2, "bairro": "Leblon", "codra": 6.0, "codra_nome": "LAGOA", "valor_ismif": 0.36945091409886099, "risco": "Baixo" }, "geometry": { "type": "Point", "coordinates": [ -43.222666999702724, -22.979382000032079 ] } },
{ "type": "Feature", "properties": { "denominaca": "Ciep Presidente João Goulart", "tipo": "CIEP", "cre": 2, "bairro": "Ipanema", "codra": 6.0, "codra_nome": "LAGOA", "valor_ismif": 0.0, "risco": "Muito Baixo" }, "geometry": { "type": "Point", "coordinates": [ -43.199175000270621, -22.98069299961654 ] } },
{ "type": "Feature", "properties": { "denominaca": "Ciep Nação Rubro Negra", "tipo": "CIEP", "cre": 2, "bairro": "Leblon", "codra": 6.0, "codra_nome": "LAGOA", "valor_ismif": 0.45716658882472799, "risco": "Médio" }, "geometry": { "type": "Point", "coordinates": [ -43.222437000324199, -22.978275000430227 ] } },
{ "type": "Feature", "properties": { "denominaca": "Creche Municipal Doutor Sobral Pinto", "tipo": "Creche Municipal", "cre": 2, "bairro": "Vidigal", "codra": 6.0, "codra_nome": "LAGOA", "valor_ismif": 0.014272140959899, "risco": "Muito Baixo" }, "geometry": { "type": "Point", "coordinates": [ -43.245549000040945, -22.996196999726443 ] } },
{ "type": "Feature", "properties": { "denominaca": "Creche Municipal Vidigal", "tipo": "Creche Municipal", "cre": 2, "bairro": "Vidigal", "codra": 6.0, "codra_nome": "LAGOA", "valor_ismif": 0.0, "risco": "Muito Baixo" }, "geometry": { "type": "Point", "coordinates": [ -43.235266000317921, -22.99382600036683 ] } },
{ "type": "Feature", "properties": { "denominaca": "Creche Municipal Jacó Inácio Gomes", "tipo": "Creche Municipal", "cre": 2, "bairro": "São Conrado", "codra": 6.0, "codra_nome": "LAGOA", "valor_ismif": 0.354181845982869, "risco": "Baixo" }, "geometry": { "type": "Point", "coordinates": [ -43.270922000098885, -22.994354000359454 ] } },
{ "type": "Feature", "properties": { "denominaca": "Creche Municipal Doutor Pedro Bloch", "tipo": "Creche Municipal", "cre": 2, "bairro": "Gávea", "codra": 6.0, "codra_nome": "LAGOA", "valor_ismif": 0.22508082919650599, "risco": "Baixo" }, "geometry": { "type": "Point", "coordinates": [ -43.240524000018333, -22.981455000424493 ] } },
{ "type": "Feature", "properties": { "denominaca": "Creche Municipal Elza Machado dos Santos - Tia Elza", "tipo": "Creche Municipal", "cre": 2, "bairro": "Copacabana", "codra": 5.0, "codra_nome": "COPACABANA", "valor_ismif": 0.0074463344138599999, "risco": "Muito Baixo" }, "geometry": { "type": "Point", "coordinates": [ -43.196354999533071, -22.98152699985118 ] } },
{ "type": "Feature", "properties": { "denominaca": "Espaço de Desenvolvimento Infantil Rubem Braga", "tipo": "EDI", "cre": 2, "bairro": "Lagoa", "codra": 6.0, "codra_nome": "LAGOA", "valor_ismif": 0.30834530810920602, "risco": "Baixo" }, "geometry": { "type": "Point", "coordinates": [ -43.20349899997472, -22.961744999718434 ] } },
{ "type": "Feature", "properties": { "denominaca": "Espaço de Desenvolvimento Infantil Júlia Kubitschek", "tipo": "EDI", "cre": 2, "bairro": "Jardim Botânico", "codra": 6.0, "codra_nome": "LAGOA", "valor_ismif": 0.488617750314566, "risco": "Médio" }, "geometry": { "type": "Point", "coordinates": [ -43.229857000470162, -22.966825000052705 ] } },
{ "type": "Feature", "properties": { "denominaca": "Escola Municipal Azevedo Sodré", "tipo": "Escola Municipal", "cre": 2, "bairro": "Praça da Bandeira", "codra": 8.0, "codra_nome": "TIJUCA", "valor_ismif": 0.418455600738525, "risco": "Médio" }, "geometry": { "type": "Point", "coordinates": [ -43.211090999989409, -22.915446999653433 ] } },
{ "type": "Feature", "properties": { "denominaca": "Escola Municipal Reverendo Martin Luther King", "tipo": "Escola Municipal", "cre": 2, "bairro": "Praça da Bandeira", "codra": 8.0, "codra_nome": "TIJUCA", "valor_ismif": 0.51556498209635404, "risco": "Médio" }, "geometry": { "type": "Point", "coordinates": [ -43.211634000057984, -22.91164500038921 ] } },
{ "type": "Feature", "properties": { "denominaca": "Escola Municipal Laudimia Trotta", "tipo": "Escola Municipal", "cre": 2, "bairro": "Tijuca", "codra": 8.0, "codra_nome": "TIJUCA", "valor_ismif": 0.315315519060407, "risco": "Baixo" }, "geometry": { "type": "Point", "coordinates": [ -43.23788899971909, -22.926842000254993 ] } },
{ "type": "Feature", "properties": { "denominaca": "Escola Municipal Francisco Cabrita", "tipo": "Escola Municipal", "cre": 2, "bairro": "Tijuca", "codra": 8.0, "codra_nome": "TIJUCA", "valor_ismif": 0.302163414333178, "risco": "Baixo" }, "geometry": { "type": "Point", "coordinates": [ -43.220332000383962, -22.920184999929536 ] } },
{ "type": "Feature", "properties": { "denominaca": "Escola Municipal Bombeiro Geraldo Dias", "tipo": "Escola Municipal", "cre": 2, "bairro": "Tijuca", "codra": 8.0, "codra_nome": "TIJUCA", "valor_ismif": 0.0, "risco": "Muito Baixo" }, "geometry": { "type": "Point", "coordinates": [ -43.227993999773965, -22.92956500042305 ] } },
{ "type": "Feature", "properties": { "denominaca": "Escola Municipal Prudente de Moraes", "tipo": "Escola Municipal", "cre": 2, "bairro": "Tijuca", "codra": 8.0, "codra_nome": "TIJUCA", "valor_ismif": 0.210970372569804, "risco": "Baixo" }, "geometry": { "type": "Point", "coordinates": [ -43.232871000147171, -22.929059999901185 ] } },
{ "type": "Feature", "properties": { "denominaca": "Escola Municipal Barão de Itacurussá", "tipo": "Escola Municipal", "cre": 2, "bairro": "Tijuca", "codra": 8.0, "codra_nome": "TIJUCA", "valor_ismif": 0.113597933451335, "risco": "Muito Baixo" }, "geometry": { "type": "Point", "coordinates": [ -43.239450000264476, -22.933599000112491 ] } },
{ "type": "Feature", "properties": { "denominaca": "Escola Municipal Almirante Barroso", "tipo": "Escola Municipal", "cre": 2, "bairro": "Tijuca", "codra": 8.0, "codra_nome": "TIJUCA", "valor_ismif": 0.094750862121582, "risco": "Muito Baixo" }, "geometry": { "type": "Point", "coordinates": [ -43.239026000349632, -22.934273999605523 ] } },
{ "type": "Feature", "properties": { "denominaca": "Escola Municipal General Euclydes de Figueiredo", "tipo": "Escola Municipal", "cre": 2, "bairro": "Tijuca", "codra": 8.0, "codra_nome": "TIJUCA", "valor_ismif": 0.48125853905311, "risco": "Médio" }, "geometry": { "type": "Point", "coordinates": [ -43.224877000119662, -22.920148000344341 ] } },
{ "type": "Feature", "properties": { "denominaca": "Escola Municipal Soares Pereira", "tipo": "Escola Municipal", "cre": 2, "bairro": "Tijuca", "codra": 8.0, "codra_nome": "TIJUCA", "valor_ismif": 0.39306602478027303, "risco": "Baixo" }, "geometry": { "type": "Point", "coordinates": [ -43.243117999709035, -22.932528999967321 ] } },
{ "type": "Feature", "properties": { "denominaca": "Escola Municipal Jornalista Brito Broca", "tipo": "Escola Municipal", "cre": 2, "bairro": "Tijuca", "codra": 8.0, "codra_nome": "TIJUCA", "valor_ismif": 0.19148936170212799, "risco": "Muito Baixo" }, "geometry": { "type": "Point", "coordinates": [ -43.241739999560657, -22.943418000283206 ] } },
{ "type": "Feature", "properties": { "denominaca": "Escola Municipal Orsina da Fonseca", "tipo": "Escola Municipal", "cre": 2, "bairro": "Tijuca", "codra": 8.0, "codra_nome": "TIJUCA", "valor_ismif": 0.44680067833433801, "risco": "Médio" }, "geometry": { "type": "Point", "coordinates": [ -43.224101000393055, -22.92015999963915 ] } },
{ "type": "Feature", "properties": { "denominaca": "Escola Municipal Mário da Veiga Cabral", "tipo": "Escola Municipal", "cre": 2, "bairro": "Tijuca", "codra": 8.0, "codra_nome": "TIJUCA", "valor_ismif": 0.277307637532552, "risco": "Baixo" }, "geometry": { "type": "Point", "coordinates": [ -43.220779999928382, -22.920559000133199 ] } },
{ "type": "Feature", "properties": { "denominaca": "Escola Municipal Frei Cassiano", "tipo": "Escola Municipal", "cre": 2, "bairro": "Tijuca", "codra": 8.0, "codra_nome": "TIJUCA", "valor_ismif": 0.0, "risco": "Muito Baixo" }, "geometry": { "type": "Point", "coordinates": [ -43.216244000261909, -22.925023999755538 ] } },
{ "type": "Feature", "properties": { "denominaca": "Escola Municipal Leitão da Cunha", "tipo": "Escola Municipal", "cre": 2, "bairro": "Tijuca", "codra": 8.0, "codra_nome": "TIJUCA", "valor_ismif": 0.20986686868870499, "risco": "Baixo" }, "geometry": { "type": "Point", "coordinates": [ -43.233510000333439, -22.921181000240626 ] } },
{ "type": "Feature", "properties": { "denominaca": "Escola Municipal Araújo Porto Alegre", "tipo": "Escola Municipal", "cre": 2, "bairro": "Alto da Boa Vista", "codra": 8.0, "codra_nome": "TIJUCA", "valor_ismif": 0.067648633997491006, "risco": "Muito Baixo" }, "geometry": { "type": "Point", "coordinates": [ -43.258095000396345, -22.947971999727915 ] } },
{ "type": "Feature", "properties": { "denominaca": "Escola Municipal Menezes Vieira", "tipo": "Escola Municipal", "cre": 2, "bairro": "Alto da Boa Vista", "codra": 8.0, "codra_nome": "TIJUCA", "valor_ismif": 0.18561607858409099, "risco": "Muito Baixo" }, "geometry": { "type": "Point", "coordinates": [ -43.277208000442108, -22.965137999937532 ] } },
{ "type": "Feature", "properties": { "denominaca": "Escola Municipal Diogo Feijó", "tipo": "Escola Municipal", "cre": 2, "bairro": "Alto da Boa Vista", "codra": 8.0, "codra_nome": "TIJUCA", "valor_ismif": 0.0052083330228919998, "risco": "Muito Baixo" }, "geometry": { "type": "Point", "coordinates": [ -43.297311000235673, -22.967215999886637 ] } },
{ "type": "Feature", "properties": { "denominaca": "Escola Municipal Mário Faccini", "tipo": "Escola Municipal", "cre": 2, "bairro": "Alto da Boa Vista", "codra": 8.0, "codra_nome": "TIJUCA", "valor_ismif": 0.13230721846870799, "risco": "Muito Baixo" }, "geometry": { "type": "Point", "coordinates": [ -43.261076999552195, -22.949316000304208 ] } },
{ "type": "Feature", "properties": { "denominaca": "Escola Municipal Mata Machado", "tipo": "Escola Municipal", "cre": 2, "bairro": "Alto da Boa Vista", "codra": 8.0, "codra_nome": "TIJUCA", "valor_ismif": 0.43575617472330702, "risco": "Médio" }, "geometry": { "type": "Point", "coordinates": [ -43.285333000375097, -22.974448999990202 ] } },
{ "type": "Feature", "properties": { "denominaca": "Escola Municipal Marc Ferrez", "tipo": "Escola Municipal", "cre": 2, "bairro": "Alto da Boa Vista", "codra": 8.0, "codra_nome": "TIJUCA", "valor_ismif": 0.35774970054626498, "risco": "Baixo" }, "geometry": { "type": "Point", "coordinates": [ -43.278467999988585, -22.965545999952653 ] } },
{ "type": "Feature", "properties": { "denominaca": "Ciep Samuel Wainer", "tipo": "CIEP", "cre": 2, "bairro": "Tijuca", "codra": 8.0, "codra_nome": "TIJUCA", "valor_ismif": 0.31066212755568501, "risco": "Baixo" }, "geometry": { "type": "Point", "coordinates": [ -43.227998000234479, -22.921273999817565 ] } },
{ "type": "Feature", "properties": { "denominaca": "Ciep Doutor Antoine Magarinos Torres Filho", "tipo": "CIEP", "cre": 2, "bairro": "Tijuca", "codra": 8.0, "codra_nome": "TIJUCA", "valor_ismif": 0.36026569122963797, "risco": "Baixo" }, "geometry": { "type": "Point", "coordinates": [ -43.253098999830804, -22.940479999820667 ] } },
{ "type": "Feature", "properties": { "denominaca": "Creche Municipal Casa Branca - Professor Paulo Freire", "tipo": "Creche Municipal", "cre": 2, "bairro": "Tijuca", "codra": 8.0, "codra_nome": "TIJUCA", "valor_ismif": 0.0, "risco": "Muito Baixo" }, "geometry": { "type": "Point", "coordinates": [ -43.248802999733542, -22.936602000148564 ] } },
{ "type": "Feature", "properties": { "denominaca": "Creche Municipal Raio de Sol", "tipo": "Creche Municipal", "cre": 2, "bairro": "Tijuca", "codra": 8.0, "codra_nome": "TIJUCA", "valor_ismif": 0.34223491587537402, "risco": "Baixo" }, "geometry": { "type": "Point", "coordinates": [ -43.253172999733202, -22.940577000074228 ] } },
{ "type": "Feature", "properties": { "denominaca": "Creche Municipal Raízes do Salgueiro", "tipo": "Creche Municipal", "cre": 2, "bairro": "Tijuca", "codra": 8.0, "codra_nome": "TIJUCA", "valor_ismif": 0.0, "risco": "Muito Baixo" }, "geometry": { "type": "Point", "coordinates": [ -43.225674000339808, -22.928218999843377 ] } },
{ "type": "Feature", "properties": { "denominaca": "Creche Municipal Tia Bela", "tipo": "Creche Municipal", "cre": 2, "bairro": "Tijuca", "codra": 8.0, "codra_nome": "TIJUCA", "valor_ismif": 0.0, "risco": "Muito Baixo" }, "geometry": { "type": "Point", "coordinates": [ -43.243001999708106, -22.938170000225622 ] } },
{ "type": "Feature", "properties": { "denominaca": "Creche Municipal Tia Maria", "tipo": "Creche Municipal", "cre": 2, "bairro": "Tijuca", "codra": 8.0, "codra_nome": "TIJUCA", "valor_ismif": 0.170212765957447, "risco": "Muito Baixo" }, "geometry": { "type": "Point", "coordinates": [ -43.241609999864707, -22.94348599973727 ] } },
{ "type": "Feature", "properties": { "denominaca": "Creche Municipal Doutor Ronaldo Luiz Gazolla", "tipo": "Creche Municipal", "cre": 2, "bairro": "Tijuca", "codra": 8.0, "codra_nome": "TIJUCA", "valor_ismif": 0.134615384615385, "risco": "Muito Baixo" }, "geometry": { "type": "Point", "coordinates": [ -43.244589999541063, -22.940150000035828 ] } },
{ "type": "Feature", "properties": { "denominaca": "Creche Municipal dos Sonhos", "tipo": "Creche Municipal", "cre": 2, "bairro": "Tijuca", "codra": 8.0, "codra_nome": "TIJUCA", "valor_ismif": 0.0, "risco": "Muito Baixo" }, "geometry": { "type": "Point", "coordinates": [ -43.220047000465037, -22.926103999577133 ] } },
{ "type": "Feature", "properties": { "denominaca": "Creche Municipal Doutor Sérgio Arouca", "tipo": "Creche Municipal", "cre": 2, "bairro": "Tijuca", "codra": 8.0, "codra_nome": "TIJUCA", "valor_ismif": 0.077681883521701994, "risco": "Muito Baixo" }, "geometry": { "type": "Point", "coordinates": [ -43.215483000355924, -22.922555000179358 ] } },
{ "type": "Feature", "properties": { "denominaca": "Espaço de Desenvolvimento Infantil Igor Moraes da Silva", "tipo": "EDI", "cre": 2, "bairro": "Alto da Boa Vista", "codra": 8.0, "codra_nome": "TIJUCA", "valor_ismif": 0.346655090649923, "risco": "Baixo" }, "geometry": { "type": "Point", "coordinates": [ -43.284475999541144, -22.975727999906162 ] } },
{ "type": "Feature", "properties": { "denominaca": "Espaço de Desenvolvimento Infantil Dr. Marcelo Candia", "tipo": "EDI", "cre": 2, "bairro": "Tijuca", "codra": 8.0, "codra_nome": "TIJUCA", "valor_ismif": 0.0, "risco": "Muito Baixo" }, "geometry": { "type": "Point", "coordinates": [ -43.254621999787418, -22.939522999893537 ] } },
{ "type": "Feature", "properties": { "denominaca": "Espaço de Desenvolvimento Infantil Borel", "tipo": "EDI", "cre": 2, "bairro": "Tijuca", "codra": 8.0, "codra_nome": "TIJUCA", "valor_ismif": 0.280693540767748, "risco": "Baixo" }, "geometry": { "type": "Point", "coordinates": [ -43.253519999873305, -22.940984999590444 ] } },
{ "type": "Feature", "properties": { "denominaca": "Espaço de Desenvolvimento Infantil Chácara do Céu", "tipo": "EDI", "cre": 2, "bairro": "Tijuca", "codra": 8.0, "codra_nome": "TIJUCA", "valor_ismif": 0.0, "risco": "Muito Baixo" }, "geometry": { "type": "Point", "coordinates": [ -43.254330000458815, -22.938214000345315 ] } },
{ "type": "Feature", "properties": { "denominaca": "Espaço de Desenvolvimento Infantil José da Silva Araújo", "tipo": "EDI", "cre": 2, "bairro": "Alto da Boa Vista", "codra": 8.0, "codra_nome": "TIJUCA", "valor_ismif": 0.217391304347826, "risco": "Baixo" }, "geometry": { "type": "Point", "coordinates": [ -43.291174999766774, -22.978278000165492 ] } },
{ "type": "Feature", "properties": { "denominaca": "Escola Municipal Benedito Ottoni", "tipo": "Escola Municipal", "cre": 2, "bairro": "Maracanã", "codra": 9.0, "codra_nome": "VILA ISABEL", "valor_ismif": 0.46912801265716603, "risco": "Médio" }, "geometry": { "type": "Point", "coordinates": [ -43.219361000336328, -22.910911999856577 ] } },
{ "type": "Feature", "properties": { "denominaca": "Escola Especial Municipal Francisco de Castro", "tipo": "Escola Especial Municipal", "cre": 2, "bairro": "Maracanã", "codra": 9.0, "codra_nome": "VILA ISABEL", "valor_ismif": 0.403650711993782, "risco": "Médio" }, "geometry": { "type": "Point", "coordinates": [ -43.22593300012376, -22.913484999909137 ] } },
{ "type": "Feature", "properties": { "denominaca": "Escola Municipal Conselheiro Mayrink", "tipo": "Escola Municipal", "cre": 2, "bairro": "Maracanã", "codra": 9.0, "codra_nome": "VILA ISABEL", "valor_ismif": 0.37174963951110801, "risco": "Baixo" }, "geometry": { "type": "Point", "coordinates": [ -43.223996000015937, -22.914467000307717 ] } },
{ "type": "Feature", "properties": { "denominaca": "Escola Municipal Barão Homem de Mello", "tipo": "Escola Municipal", "cre": 2, "bairro": "Maracanã", "codra": 9.0, "codra_nome": "VILA ISABEL", "valor_ismif": 0.54650237712454297, "risco": "Médio" }, "geometry": { "type": "Point", "coordinates": [ -43.236924999639534, -22.916828999638639 ] } },
{ "type": "Feature", "properties": { "denominaca": "Escola Municipal Friedenreich", "tipo": "Escola Municipal", "cre": 2, "bairro": "Maracanã", "codra": 9.0, "codra_nome": "VILA ISABEL", "valor_ismif": 0.279653429985046, "risco": "Baixo" }, "geometry": { "type": "Point", "coordinates": [ -43.228792000421052, -22.913298999802009 ] } },
{ "type": "Feature", "properties": { "denominaca": "Escola Municipal Jornalista Assis Chateaubriand", "tipo": "Escola Municipal", "cre": 2, "bairro": "Vila Isabel", "codra": 9.0, "codra_nome": "VILA ISABEL", "valor_ismif": 0.20975824991861999, "risco": "Baixo" }, "geometry": { "type": "Point", "coordinates": [ -43.258956999783067, -22.916680000041421 ] } },
{ "type": "Feature", "properties": { "denominaca": "Escola Municipal Madrid", "tipo": "Escola Municipal", "cre": 2, "bairro": "Vila Isabel", "codra": 9.0, "codra_nome": "VILA ISABEL", "valor_ismif": 0.44432180068072202, "risco": "Médio" }, "geometry": { "type": "Point", "coordinates": [ -43.236530999985298, -22.916226999576541 ] } },
{ "type": "Feature", "properties": { "denominaca": "Escola Municipal República Argentina", "tipo": "Escola Municipal", "cre": 2, "bairro": "Vila Isabel", "codra": 9.0, "codra_nome": "VILA ISABEL", "valor_ismif": 0.21488202136495799, "risco": "Baixo" }, "geometry": { "type": "Point", "coordinates": [ -43.238643999782077, -22.914603000040742 ] } },
{ "type": "Feature", "properties": { "denominaca": "Escola Municipal Equador", "tipo": "Escola Municipal", "cre": 2, "bairro": "Vila Isabel", "codra": 9.0, "codra_nome": "VILA ISABEL", "valor_ismif": 0.41668745811949398, "risco": "Médio" }, "geometry": { "type": "Point", "coordinates": [ -43.247047999718887, -22.916151999563869 ] } },
{ "type": "Feature", "properties": { "denominaca": "Escola Municipal Noel Rosa", "tipo": "Escola Municipal", "cre": 2, "bairro": "Vila Isabel", "codra": 9.0, "codra_nome": "VILA ISABEL", "valor_ismif": 0.071871545579698007, "risco": "Muito Baixo" }, "geometry": { "type": "Point", "coordinates": [ -43.262437999935337, -22.915606999924144 ] } },
{ "type": "Feature", "properties": { "denominaca": "Escola Municipal Mário de Andrade", "tipo": "Escola Municipal", "cre": 2, "bairro": "Vila Isabel", "codra": 9.0, "codra_nome": "VILA ISABEL", "valor_ismif": 0.075069650014241998, "risco": "Muito Baixo" }, "geometry": { "type": "Point", "coordinates": [ -43.259127999932879, -22.915816999958505 ] } },
{ "type": "Feature", "properties": { "denominaca": "Escola Municipal Francisco Manuel", "tipo": "Escola Municipal", "cre": 2, "bairro": "Vila Isabel", "codra": 9.0, "codra_nome": "VILA ISABEL", "valor_ismif": 0.514228572016177, "risco": "Médio" }, "geometry": { "type": "Point", "coordinates": [ -43.24219199996319, -22.920405999553523 ] } },
{ "type": "Feature", "properties": { "denominaca": "Escola Municipal General Humberto de Souza Mello", "tipo": "Escola Municipal", "cre": 2, "bairro": "Vila Isabel", "codra": 9.0, "codra_nome": "VILA ISABEL", "valor_ismif": 0.33506287919714101, "risco": "Baixo" }, "geometry": { "type": "Point", "coordinates": [ -43.239392999611006, -22.909823000317019 ] } },
{ "type": "Feature", "properties": { "denominaca": "Escola Municipal Affonso Penna", "tipo": "Escola Municipal", "cre": 2, "bairro": "Tijuca", "codra": 8.0, "codra_nome": "TIJUCA", "valor_ismif": 0.31336811913384299, "risco": "Baixo" }, "geometry": { "type": "Point", "coordinates": [ -43.240029999808058, -22.924400999555363 ] } },
{ "type": "Feature", "properties": { "denominaca": "Escola Municipal Baptista Pereira", "tipo": "Escola Municipal", "cre": 2, "bairro": "Andaraí", "codra": 9.0, "codra_nome": "VILA ISABEL", "valor_ismif": 0.36305264064243897, "risco": "Baixo" }, "geometry": { "type": "Point", "coordinates": [ -43.243686999819658, -22.922374999964077 ] } },
{ "type": "Feature", "properties": { "denominaca": "Escola Municipal Rodrigo Mello Franco Andrade", "tipo": "Escola Municipal", "cre": 2, "bairro": "Andaraí", "codra": 9.0, "codra_nome": "VILA ISABEL", "valor_ismif": 0.058215791980426, "risco": "Muito Baixo" }, "geometry": { "type": "Point", "coordinates": [ -43.250359999562015, -22.930185000281387 ] } },
{ "type": "Feature", "properties": { "denominaca": "Escola Municipal Afrânio Peixoto", "tipo": "Escola Municipal", "cre": 2, "bairro": "Grajaú", "codra": 9.0, "codra_nome": "VILA ISABEL", "valor_ismif": 0.66950003306071004, "risco": "Alto" }, "geometry": { "type": "Point", "coordinates": [ -43.254912999946242, -22.926855000031043 ] } },
{ "type": "Feature", "properties": { "denominaca": "Escola Municipal Epitácio Pessoa", "tipo": "Escola Municipal", "cre": 2, "bairro": "Andaraí", "codra": 9.0, "codra_nome": "VILA ISABEL", "valor_ismif": 0.17830802024678999, "risco": "Muito Baixo" }, "geometry": { "type": "Point", "coordinates": [ -43.250996000148923, -22.929747999996739 ] } },
{ "type": "Feature", "properties": { "denominaca": "Escola Municipal Presidente João Goulart", "tipo": "Escola Municipal", "cre": 2, "bairro": "Andaraí", "codra": 9.0, "codra_nome": "VILA ISABEL", "valor_ismif": 0.43958639061969301, "risco": "Médio" }, "geometry": { "type": "Point", "coordinates": [ -43.252083999995385, -22.921133000339083 ] } },
{ "type": "Feature", "properties": { "denominaca": "Escola Municipal Panamá", "tipo": "Escola Municipal", "cre": 2, "bairro": "Andaraí", "codra": 9.0, "codra_nome": "VILA ISABEL", "valor_ismif": 0.355799188419264, "risco": "Baixo" }, "geometry": { "type": "Point", "coordinates": [ -43.255196000385148, -22.923188999976844 ] } },
{ "type": "Feature", "properties": { "denominaca": "Escola Municipal Duque de Caxias", "tipo": "Escola Municipal", "cre": 2, "bairro": "Grajaú", "codra": 9.0, "codra_nome": "VILA ISABEL", "valor_ismif": 0.13222306707631001, "risco": "Muito Baixo" }, "geometry": { "type": "Point", "coordinates": [ -43.265090000047167, -22.918540999864117 ] } },
{ "type": "Feature", "properties": { "denominaca": "Escola Municipal Francisco Campos", "tipo": "Escola Municipal", "cre": 2, "bairro": "Grajaú", "codra": 9.0, "codra_nome": "VILA ISABEL", "valor_ismif": 0.448902045355903, "risco": "Médio" }, "geometry": { "type": "Point", "coordinates": [ -43.257756000309833, -22.921896000206161 ] } },
{ "type": "Feature", "properties": { "denominaca": "Escola Municipal Professor Lourenço Filho", "tipo": "Escola Municipal", "cre": 2, "bairro": "Grajaú", "codra": 9.0, "codra_nome": "VILA ISABEL", "valor_ismif": 0.32150073581271699, "risco": "Baixo" }, "geometry": { "type": "Point", "coordinates": [ -43.26466699996071, -22.923038999717889 ] } },
{ "type": "Feature", "properties": { "denominaca": "Ciep Presidente Salvador Allende", "tipo": "CIEP", "cre": 2, "bairro": "Vila Isabel", "codra": 9.0, "codra_nome": "VILA ISABEL", "valor_ismif": 0.039408657861792998, "risco": "Muito Baixo" }, "geometry": { "type": "Point", "coordinates": [ -43.259181000471422, -22.914087000117949 ] } },
{ "type": "Feature", "properties": { "denominaca": "Creche Municipal Pipa no Céu", "tipo": "Creche Municipal", "cre": 2, "bairro": "São Francisco Xavier", "codra": 13.0, "codra_nome": "MEIER", "valor_ismif": 0.020148903715844001, "risco": "Muito Baixo" }, "geometry": { "type": "Point", "coordinates": [ -43.242383000184759, -22.906800000073336 ] } },
{ "type": "Feature", "properties": { "denominaca": "Creche Municipal Cantinho do Céu", "tipo": "Creche Municipal", "cre": 2, "bairro": "Tijuca", "codra": 8.0, "codra_nome": "TIJUCA", "valor_ismif": 0.0, "risco": "Muito Baixo" }, "geometry": { "type": "Point", "coordinates": [ -43.250580000115995, -22.930965999842435 ] } },
{ "type": "Feature", "properties": { "denominaca": "Creche Municipal Galdino Manoel da Silva", "tipo": "Creche Municipal", "cre": 2, "bairro": "Andaraí", "codra": 9.0, "codra_nome": "VILA ISABEL", "valor_ismif": 0.0, "risco": "Muito Baixo" }, "geometry": { "type": "Point", "coordinates": [ -43.260763999838758, -22.933066000345956 ] } },
{ "type": "Feature", "properties": { "denominaca": "Creche Municipal Nova Divinéia", "tipo": "Creche Municipal", "cre": 2, "bairro": "Grajaú", "codra": 9.0, "codra_nome": "VILA ISABEL", "valor_ismif": 0.0076118085119459998, "risco": "Muito Baixo" }, "geometry": { "type": "Point", "coordinates": [ -43.263874999676247, -22.928892999721782 ] } },
{ "type": "Feature", "properties": { "denominaca": "Creche Municipal São Sebastião - Arrelia", "tipo": "Creche Municipal", "cre": 2, "bairro": "Andaraí", "codra": 9.0, "codra_nome": "VILA ISABEL", "valor_ismif": 0.22448979591836701, "risco": "Baixo" }, "geometry": { "type": "Point", "coordinates": [ -43.261846999981323, -22.936518000154649 ] } },
{ "type": "Feature", "properties": { "denominaca": "Creche Municipal Winnie Mandela", "tipo": "Creche Municipal", "cre": 2, "bairro": "Andaraí", "codra": 9.0, "codra_nome": "VILA ISABEL", "valor_ismif": 0.20142120785183401, "risco": "Baixo" }, "geometry": { "type": "Point", "coordinates": [ -43.257282999531981, -22.932544999690851 ] } },
{ "type": "Feature", "properties": { "denominaca": "Creche Municipal Solange Maria Magalhães", "tipo": "Creche Municipal", "cre": 2, "bairro": "Vila Isabel", "codra": 9.0, "codra_nome": "VILA ISABEL", "valor_ismif": 0.013105396429697999, "risco": "Muito Baixo" }, "geometry": { "type": "Point", "coordinates": [ -43.252219000473559, -22.913573999935284 ] } },
{ "type": "Feature", "properties": { "denominaca": "Creche Municipal Germinal da Vila", "tipo": "Creche Municipal", "cre": 2, "bairro": "Vila Isabel", "codra": 9.0, "codra_nome": "VILA ISABEL", "valor_ismif": 0.098329353332520006, "risco": "Muito Baixo" }, "geometry": { "type": "Point", "coordinates": [ -43.255246999837837, -22.913956000153838 ] } },
{ "type": "Feature", "properties": { "denominaca": "Creche Municipal Papa João Paulo II", "tipo": "Creche Municipal", "cre": 2, "bairro": "Grajaú", "codra": 9.0, "codra_nome": "VILA ISABEL", "valor_ismif": 0.0, "risco": "Muito Baixo" }, "geometry": { "type": "Point", "coordinates": [ -43.262109999541742, -22.929088000160146 ] } },
{ "type": "Feature", "properties": { "denominaca": "Creche Municipal Francisco de Paula", "tipo": "Creche Municipal", "cre": 2, "bairro": "Vila Isabel", "codra": 9.0, "codra_nome": "VILA ISABEL", "valor_ismif": 0.22795517548270799, "risco": "Baixo" }, "geometry": { "type": "Point", "coordinates": [ -43.247569999794251, -22.911889999828631 ] } },
{ "type": "Feature", "properties": { "denominaca": "Espaço de Desenvolvimento Infantil Barbara Ottoni", "tipo": "EDI", "cre": 2, "bairro": "Maracanã", "codra": 9.0, "codra_nome": "VILA ISABEL", "valor_ismif": 0.51447762383355, "risco": "Médio" }, "geometry": { "type": "Point", "coordinates": [ -43.219744999946215, -22.910608999796409 ] } },
{ "type": "Feature", "properties": { "denominaca": "Espaço de Desenvolvimento Infantil Aníbal Machado", "tipo": "EDI", "cre": 2, "bairro": "Andaraí", "codra": 9.0, "codra_nome": "VILA ISABEL", "valor_ismif": 0.178377313816801, "risco": "Muito Baixo" }, "geometry": { "type": "Point", "coordinates": [ -43.250819999694194, -22.929605999881868 ] } },
{ "type": "Feature", "properties": { "denominaca": "Espaço de Desenvolvimento Infantil Professora Suely de Pinho Cavalcante", "tipo": "EDI", "cre": 2, "bairro": "Vila Isabel", "codra": 9.0, "codra_nome": "VILA ISABEL", "valor_ismif": 0.070682136908820997, "risco": "Muito Baixo" }, "geometry": { "type": "Point", "coordinates": [ -43.259922999556387, -22.914416000036436 ] } },
{ "type": "Feature", "properties": { "denominaca": "Espaço de Desenvolvimento Infantil Professora Lucia Maria Quitete de Carvalho Amaral", "tipo": "EDI", "cre": 2, "bairro": "Grajaú", "codra": 9.0, "codra_nome": "VILA ISABEL", "valor_ismif": 0.26882710664168602, "risco": "Baixo" }, "geometry": { "type": "Point", "coordinates": [ -43.265250000039337, -22.928467000066806 ] } },
{ "type": "Feature", "properties": { "denominaca": "Escola Municipal Abelardo Chacrinha Barbosa", "tipo": "Escola Municipal", "cre": 2, "bairro": "Gávea", "codra": 6.0, "codra_nome": "LAGOA", "valor_ismif": 0.14212441444397, "risco": "Muito Baixo" }, "geometry": { "type": "Point", "coordinates": [ -43.250021999645497, -22.98371099993474 ] } },
{ "type": "Feature", "properties": { "denominaca": "Escola Municipal Francisco de Paula Brito", "tipo": "Escola Municipal", "cre": 2, "bairro": "Rocinha", "codra": 27.0, "codra_nome": "ROCINHA", "valor_ismif": 0.0071360704799490002, "risco": "Muito Baixo" }, "geometry": { "type": "Point", "coordinates": [ -43.247696999653606, -22.987409000209066 ] } },
{ "type": "Feature", "properties": { "denominaca": "Escola Municipal Rinaldo De Lamare", "tipo": "Escola Municipal", "cre": 2, "bairro": "São Conrado", "codra": 6.0, "codra_nome": "LAGOA", "valor_ismif": 0.610653085911528, "risco": "Alto" }, "geometry": { "type": "Point", "coordinates": [ -43.252896000459735, -22.99354600033049 ] } },
{ "type": "Feature", "properties": { "denominaca": "Escola Municipal André Urani", "tipo": "Escola Municipal", "cre": 2, "bairro": "Gávea", "codra": 6.0, "codra_nome": "LAGOA", "valor_ismif": 0.01047511100769, "risco": "Muito Baixo" }, "geometry": { "type": "Point", "coordinates": [ -43.244499999817769, -22.984709999625832 ] } },
{ "type": "Feature", "properties": { "denominaca": "Escola Municipal Luiz Paulo Horta", "tipo": "Escola Municipal", "cre": 2, "bairro": "Rocinha", "codra": 27.0, "codra_nome": "ROCINHA", "valor_ismif": 0.0, "risco": "Muito Baixo" }, "geometry": { "type": "Point", "coordinates": [ -43.252342999606732, -22.989328000115119 ] } },
{ "type": "Feature", "properties": { "denominaca": "Ciep Doutor Bento Rubião", "tipo": "CIEP", "cre": 2, "bairro": "Rocinha", "codra": 27.0, "codra_nome": "ROCINHA", "valor_ismif": 0.0, "risco": "Muito Baixo" }, "geometry": { "type": "Point", "coordinates": [ -43.252492000442679, -22.988834999938746 ] } },
{ "type": "Feature", "properties": { "denominaca": "Creche Municipal Castelinho", "tipo": "Creche Municipal", "cre": 2, "bairro": "Rocinha", "codra": 27.0, "codra_nome": "ROCINHA", "valor_ismif": 0.0, "risco": "Muito Baixo" }, "geometry": { "type": "Point", "coordinates": [ -43.246888999999001, -22.98736399979196 ] } },
{ "type": "Feature", "properties": { "denominaca": "Creche Municipal Iacyra Frazão", "tipo": "Creche Municipal", "cre": 2, "bairro": "Rocinha", "codra": 27.0, "codra_nome": "ROCINHA", "valor_ismif": 0.0, "risco": "Muito Baixo" }, "geometry": { "type": "Point", "coordinates": [ -43.246407000383904, -22.985510999789422 ] } },
{ "type": "Feature", "properties": { "denominaca": "Espaço de Desenvolvimento Infantil Professora Edir Caseiro Ribeiro", "tipo": "EDI", "cre": 2, "bairro": "Rocinha", "codra": 27.0, "codra_nome": "ROCINHA", "valor_ismif": 0.0, "risco": "Muito Baixo" }, "geometry": { "type": "Point", "coordinates": [ -43.246440000161996, -22.9879999998379 ] } },
{ "type": "Feature", "properties": { "denominaca": "Escola Municipal Oswaldo Cruz", "tipo": "Escola Municipal", "cre": 3, "bairro": "Higienópolis", "codra": 12.0, "codra_nome": "INHAUMA", "valor_ismif": 0.23670244216918901, "risco": "Baixo" }, "geometry": { "type": "Point", "coordinates": [ -43.256303999641496, -22.877682000114248 ] } },
{ "type": "Feature", "properties": { "denominaca": "Escola Municipal Alcide de Gasperi", "tipo": "Escola Municipal", "cre": 3, "bairro": "Higienópolis", "codra": 12.0, "codra_nome": "INHAUMA", "valor_ismif": 0.57841953864464402, "risco": "Médio" }, "geometry": { "type": "Point", "coordinates": [ -43.264854999724058, -22.869597999607457 ] } },
{ "type": "Feature", "properties": { "denominaca": "Escola Municipal Ordem e Progresso", "tipo": "Escola Municipal", "cre": 3, "bairro": "Higienópolis", "codra": 12.0, "codra_nome": "INHAUMA", "valor_ismif": 0.121788936191135, "risco": "Muito Baixo" }, "geometry": { "type": "Point", "coordinates": [ -43.262177000067759, -22.876374000197288 ] } },
{ "type": "Feature", "properties": { "denominaca": "Escola Municipal Estado da Guanabara", "tipo": "Escola Municipal", "cre": 3, "bairro": "Higienópolis", "codra": 12.0, "codra_nome": "INHAUMA", "valor_ismif": 0.12838220596313499, "risco": "Muito Baixo" }, "geometry": { "type": "Point", "coordinates": [ -43.256668000093583, -22.878216999967545 ] } },
{ "type": "Feature", "properties": { "denominaca": "Escola Municipal D. João VI", "tipo": "Escola Municipal", "cre": 3, "bairro": "Higienópolis", "codra": 12.0, "codra_nome": "INHAUMA", "valor_ismif": 0.096463797043780997, "risco": "Muito Baixo" }, "geometry": { "type": "Point", "coordinates": [ -43.26316100030845, -22.872877999756646 ] } },
{ "type": "Feature", "properties": { "denominaca": "Escola Municipal Ministro Orosimbo Nonato", "tipo": "Escola Municipal", "cre": 3, "bairro": "Higienópolis", "codra": 12.0, "codra_nome": "INHAUMA", "valor_ismif": 0.099899590015411002, "risco": "Muito Baixo" }, "geometry": { "type": "Point", "coordinates": [ -43.262799000393784, -22.872867999706983 ] } },
{ "type": "Feature", "properties": { "denominaca": "Escola Municipal Delfim Moreira", "tipo": "Escola Municipal", "cre": 3, "bairro": "Jacaré", "codra": 13.0, "codra_nome": "MEIER", "valor_ismif": 0.190596373184868, "risco": "Muito Baixo" }, "geometry": { "type": "Point", "coordinates": [ -43.252538000055786, -22.893764000015135 ] } },
{ "type": "Feature", "properties": { "denominaca": "Escola Municipal George Sumner", "tipo": "Escola Municipal", "cre": 3, "bairro": "Riachuelo", "codra": 13.0, "codra_nome": "MEIER", "valor_ismif": 0.31270577357365498, "risco": "Baixo" }, "geometry": { "type": "Point", "coordinates": [ -43.255408000155391, -22.900703999756921 ] } },
{ "type": "Feature", "properties": { "denominaca": "Escola Municipal Pace", "tipo": "Escola Municipal", "cre": 3, "bairro": "Higienópolis", "codra": 12.0, "codra_nome": "INHAUMA", "valor_ismif": 0.24282660086949701, "risco": "Baixo" }, "geometry": { "type": "Point", "coordinates": [ -43.258305999780646, -22.880460000192713 ] } },
{ "type": "Feature", "properties": { "denominaca": "Escola Municipal Pernambuco", "tipo": "Escola Municipal", "cre": 3, "bairro": "Maria da Graça", "codra": 12.0, "codra_nome": "INHAUMA", "valor_ismif": 0.27755363951338102, "risco": "Baixo" }, "geometry": { "type": "Point", "coordinates": [ -43.262622000454272, -22.884178999893816 ] } },
{ "type": "Feature", "properties": { "denominaca": "Escola Municipal Manoel Bomfim", "tipo": "Escola Municipal", "cre": 3, "bairro": "Del Castilho", "codra": 12.0, "codra_nome": "INHAUMA", "valor_ismif": 0.22095597585042301, "risco": "Baixo" }, "geometry": { "type": "Point", "coordinates": [ -43.274149000145421, -22.88446499970004 ] } },
{ "type": "Feature", "properties": { "denominaca": "Escola Municipal São Domingos", "tipo": "Escola Municipal", "cre": 3, "bairro": "Del Castilho", "codra": 12.0, "codra_nome": "INHAUMA", "valor_ismif": 0.40784478187561002, "risco": "Médio" }, "geometry": { "type": "Point", "coordinates": [ -43.27518099960745, -22.879897000161176 ] } },
{ "type": "Feature", "properties": { "denominaca": "Escola Municipal Nereu Sampaio", "tipo": "Escola Municipal", "cre": 3, "bairro": "Inhaúma", "codra": 12.0, "codra_nome": "INHAUMA", "valor_ismif": 0.083607949150933003, "risco": "Muito Baixo" }, "geometry": { "type": "Point", "coordinates": [ -43.289141000214038, -22.86826200026935 ] } },
{ "type": "Feature", "properties": { "denominaca": "Escola Municipal Barão de Macahubas", "tipo": "Escola Municipal", "cre": 3, "bairro": "Inhaúma", "codra": 12.0, "codra_nome": "INHAUMA", "valor_ismif": 0.36295631408691398, "risco": "Baixo" }, "geometry": { "type": "Point", "coordinates": [ -43.282940999642022, -22.873188000040489 ] } },
{ "type": "Feature", "properties": { "denominaca": "Escola Municipal Ceará", "tipo": "Escola Municipal", "cre": 3, "bairro": "Inhaúma", "codra": 12.0, "codra_nome": "INHAUMA", "valor_ismif": 0.44533258803347298, "risco": "Médio" }, "geometry": { "type": "Point", "coordinates": [ -43.28339199986447, -22.872647999954662 ] } },
{ "type": "Feature", "properties": { "denominaca": "Escola Municipal Lauro Sodré", "tipo": "Escola Municipal", "cre": 3, "bairro": "Inhaúma", "codra": 12.0, "codra_nome": "INHAUMA", "valor_ismif": 0.57317606608072902, "risco": "Médio" }, "geometry": { "type": "Point", "coordinates": [ -43.268935999755577, -22.872791000428439 ] } },
{ "type": "Feature", "properties": { "denominaca": "Escola Municipal Nicolau Antônio Taunay", "tipo": "Escola Municipal", "cre": 3, "bairro": "Inhaúma", "codra": 12.0, "codra_nome": "INHAUMA", "valor_ismif": 0.17692971736826801, "risco": "Muito Baixo" }, "geometry": { "type": "Point", "coordinates": [ -43.275900000367713, -22.874569000424078 ] } },
{ "type": "Feature", "properties": { "denominaca": "Escola Municipal Olavo Josino de Salles", "tipo": "Escola Municipal", "cre": 3, "bairro": "Inhaúma", "codra": 12.0, "codra_nome": "INHAUMA", "valor_ismif": 0.083351571509179004, "risco": "Muito Baixo" }, "geometry": { "type": "Point", "coordinates": [ -43.286073000249758, -22.870439999794097 ] } },
{ "type": "Feature", "properties": { "denominaca": "Escola Municipal Gustavo Armbrust", "tipo": "Escola Municipal", "cre": 3, "bairro": "Inhaúma", "codra": 12.0, "codra_nome": "INHAUMA", "valor_ismif": 0.18488778873365799, "risco": "Muito Baixo" }, "geometry": { "type": "Point", "coordinates": [ -43.275121999653017, -22.874336000264979 ] } },
{ "type": "Feature", "properties": { "denominaca": "Escola Municipal Eurico Vilela", "tipo": "Escola Municipal", "cre": 3, "bairro": "Inhaúma", "codra": 12.0, "codra_nome": "INHAUMA", "valor_ismif": 0.18020936276050301, "risco": "Muito Baixo" }, "geometry": { "type": "Point", "coordinates": [ -43.272856999859982, -22.873841999918596 ] } },
{ "type": "Feature", "properties": { "denominaca": "Escola Municipal Rubens Berardo", "tipo": "Escola Municipal", "cre": 3, "bairro": "Complexo do Alemão", "codra": 29.0, "codra_nome": "COMPLEXO DO ALEMÃO", "valor_ismif": 0.32477679782443603, "risco": "Baixo" }, "geometry": { "type": "Point", "coordinates": [ -43.275562999768638, -22.868903999754931 ] } },
{ "type": "Feature", "properties": { "denominaca": "Escola Municipal Joaquim Ribeiro", "tipo": "Escola Municipal", "cre": 3, "bairro": "Inhaúma", "codra": 12.0, "codra_nome": "INHAUMA", "valor_ismif": 0.146580696105957, "risco": "Muito Baixo" }, "geometry": { "type": "Point", "coordinates": [ -43.285628000116304, -22.877569999678695 ] } },
{ "type": "Feature", "properties": { "denominaca": "Escola Municipal Domingos Bebiano", "tipo": "Escola Municipal", "cre": 3, "bairro": "Inhaúma", "codra": 12.0, "codra_nome": "INHAUMA", "valor_ismif": 0.43854014078775999, "risco": "Médio" }, "geometry": { "type": "Point", "coordinates": [ -43.277712000087654, -22.873892000447224 ] } },
{ "type": "Feature", "properties": { "denominaca": "Escola Municipal Professora Arminda Moreira Padova", "tipo": "Escola Municipal", "cre": 3, "bairro": "Inhaúma", "codra": 12.0, "codra_nome": "INHAUMA", "valor_ismif": 0.47196728250254799, "risco": "Médio" }, "geometry": { "type": "Point", "coordinates": [ -43.270758000140695, -22.872758000422014 ] } },
{ "type": "Feature", "properties": { "denominaca": "Escola Municipal Professor Afonso Várzea", "tipo": "Escola Municipal", "cre": 3, "bairro": "Inhaúma", "codra": 12.0, "codra_nome": "INHAUMA", "valor_ismif": 0.48116421169704898, "risco": "Médio" }, "geometry": { "type": "Point", "coordinates": [ -43.273839999652729, -22.86752200011129 ] } },